Census year,Block ID,Property ID,Base property ID,Building name,Street address,CLUE small area,Construction year,Refurbished year,Number of floors (above ground),Predominant space use,Accessibility type,Accessibility type description,Accessibility rating,Bicycle spaces,Has showers,Latitude,Longitude
2015,1,611393,611393,Northbank Place East Tower,507-541 Flinders Street ,Melbourne (CBD),2009,,11,Office,High level of accessibility,Main Entrance is at grade and has no steps or ramp,3,0,,-37.82088351, 144.957229905
2015,1,611394,611394,Northbank Place Central Tower,545-557 Flinders Street ,Melbourne (CBD),2009,,16,Residential Apartment,High level of accessibility,Main Entrance is at grade and has no steps or ramp,3,42,,-37.8209939689, 144.956518458
2015,1,611395,611395,Northbank Place West Tower,561-581 Flinders Street ,Melbourne (CBD),2009,,18,Residential Apartment,High level of accessibility,Main Entrance is at grade and has no steps or ramp,3,0,,-37.821131263, 144.955864933
2015,1,611396,611396,Batman Park,2A Spencer Street,Melbourne (CBD),,,2,Transport,High level of accessibility,Main Entrance is at grade and has no steps or ramp,3,0,,-37.8217851354, 144.956612997
2015,1,108843,108843,Rebecca Walk,2-92 Rebecca Walk,Melbourne (CBD),1980,1996,1,Unoccupied - Unused,Not determined or not applicable,Access has not been rated,0,0,,-37.8213142043, 144.956396892
2015,2,103973,103973,Enterprize Park,469-503 Flinders Street ,Melbourne (CBD),,,1,Equipment Installation,Not determined or not applicable,Building is not considered to be publicly accessible so access has not been rated,0,0,,-37.8204727985, 144.958989544
2015,2,111467,103973,Melbourne Aquarium, King Street ,Melbourne (CBD),1999,,2,Entertainment/Recreation - Indoor,High level of accessibility,Main Entrance is at grade and has no steps or ramp,3,0,1,-37.8204727985, 144.958989544
2015,4,103972,103972,Banana Alley Vaults No. 1 - 19,363-397 Flinders Street ,Melbourne (CBD),1900,1990,1,Entertainment/Recreation - Indoor,Not determined or not applicable,Configuration of entrance does not fit into any of the other categories,0,0,1,-37.8195316288, 144.962286802
2015,4,104034,104034,Flinders Street Station,207-361 Flinders Street ,Melbourne (CBD),1910,,5,Office,Not determined or not applicable,Configuration of entrance does not fit into any of the other categories,0,0,1,-37.8186610515, 144.96546591
2015,4,608352,608352,Northbank                                         , Flinders Walk ,Melbourne (CBD),,2010,2,Public Display Area,Not determined or not applicable,Building is not considered to be publicly accessible so access has not been rated,0,0,,-37.8192153566, 144.965183134
2015,6,578324,573333,Transport,2 Swanston Street ,Melbourne (CBD),2002,,3,Entertainment/Recreation - Indoor,High level of accessibility,Main Entrance is at grade and has no steps or ramp,3,0,,-37.8178446527, 144.969917495
2015,6,578321,573333,Atrium,2 Swanston Street ,Melbourne (CBD),2002,,2,Entertainment/Recreation - Indoor,High level of accessibility,Main Entrance is at grade and has no steps or ramp,3,0,,-37.8178446527, 144.969917495
2015,6,578328,573333,Carpark,2 Swanston Street ,Melbourne (CBD),2002,,1,Parking - Commercial Covered,Moderate level of accessibility,Main entrance has steps; Alternative entrance is step free or has ramp,2,0,,-37.8178446527, 144.969917495
2015,6,578327,573333,Zinc at Fed Sq,2 Swanston Street ,Melbourne (CBD),2002,,1,Entertainment/Recreation - Indoor,High level of accessibility,Main Entrance is at grade and has no steps or ramp,3,0,,-37.8178446527, 144.969917495
2015,6,578326,573333,Deakin Edge,2 Swanston Street ,Melbourne (CBD),2002,,1,"Performances, Conferences, Ceremonies",Moderate level of accessibility,Main entrance has steps; Alternative entrance is step free or has ramp,2,0,,-37.8178446527, 144.969917495
2015,6,578325,573333,Yarra Building,2 Swanston Street ,Melbourne (CBD),2002,,4,Unoccupied - Under Renovation,High level of accessibility,Main Entrance is at grade and has no steps or ramp,3,0,,-37.8178446527, 144.969917495
2015,6,110655,110655,Princes Walk Vaults,1-19 Princes Walk,Melbourne (CBD),1880,,1,Entertainment/Recreation - Indoor,Moderate level of accessibility,Main entrance has steps; Alternative entrance is step free or has ramp,2,0,,-37.8186591949, 144.968934931
2015,6,578320,573333,The Ian Potter Centre: NGV Australia,2 Swanston Street ,Melbourne (CBD),2002,,4,Public Display Area,High level of accessibility,Main Entrance is at grade and has no steps or ramp,3,0,,-37.8178446527, 144.969917495
2015,6,578319,573333,Alfred Deakin Building,2 Swanston Street ,Melbourne (CBD),2002,,4,"Performances, Conferences, Ceremonies",High level of accessibility,Main Entrance is at grade and has no steps or ramp,3,0,,-37.8178446527, 144.969917495
2015,6,578318,573333,East Shard,2 Swanston Street ,Melbourne (CBD),2002,,4,Office,High level of accessibility,Main Entrance is at grade and has no steps or ramp,3,0,,-37.8178446527, 144.969917495
2015,6,578317,573333,Melbourne Visitor Centre,2 Swanston Street ,Melbourne (CBD),2002,,1,Retail - Shop,High level of accessibility,Main Entrance is at grade and has no steps or ramp,3,0,,-37.8178446527, 144.969917495
2015,6,578322,573333,Crossbar,2 Swanston Street ,Melbourne (CBD),2002,,4,Entertainment/Recreation - Indoor,High level of accessibility,Main Entrance is at grade and has no steps or ramp,3,0,,-37.8178446527, 144.969917495
2015,6,578323,573333,Square,2 Swanston Street ,Melbourne (CBD),2002,,1,Entertainment/Recreation - Indoor,High level of accessibility,Main Entrance is at grade and has no steps or ramp,3,0,,-37.8178446527, 144.969917495
2015,11,103992,103992,,516-518 Flinders Street ,Melbourne (CBD),1945,1990,4,Entertainment/Recreation - Indoor,Low level of accessibility,All entrances have steps,1,0,1,-37.820214019, 144.956985569
2015,11,103993,103993,Waterside Hotel,508-514 Flinders Street ,Melbourne (CBD),1925,,3,Entertainment/Recreation - Indoor,Low level of accessibility,All entrances have steps,1,0,,-37.8201659954, 144.957150507
2015,11,105293,105293,,25 King Street ,Melbourne (CBD),1887,,3,Office,Low level of accessibility,All entrances have steps,1,0,,-37.8198524021, 144.956992546
2015,11,105294,105294,Melbourne Steamship CO.,27-31 King Street ,Melbourne (CBD),1913,2010,6,Office,Moderate level of accessibility,Main entrance has steps; Alternative entrance is step free or has ramp,2,20,0,-37.8197555926, 144.956948523
2015,11,105295,105295,Stokes Building,33-35 King Street ,Melbourne (CBD),1972,1980,2,Unoccupied - Unused,Low level of accessibility,All entrances have steps,1,0,,-37.8196248979, 144.956888375
2015,11,108971,108971,Holiday Inn on Flinders,561-585 Flinders Lane ,Melbourne (CBD),1990,1997,9,Commercial Accommodation,Moderate level of accessibility,Main entrance has steps; Alternative entrance is step free or has ramp,2,0,1,-37.8202048163, 144.955152428
2015,11,559405,559405,Morgan Place,547-555 Flinders Lane ,Melbourne (CBD),2000,,8,Residential Apartment,Low level of accessibility,All entrances have steps,1,0,,-37.8200195216, 144.955837945
2015,11,103957,103957,Katherine Square,517-537 Flinders Lane ,Melbourne (CBD),1990,,5,Office,High level of accessibility,Main Entrance has ramp,3,0,,-37.8198848362, 144.956601684
2015,11,103991,103991,,520-522 Flinders Street ,Melbourne (CBD),1910,,2,Unoccupied - Unused,Low level of accessibility,All entrances have steps,1,0,,-37.8202434568, 144.956883673
2015,11,108972,108972,Pensione Hotel,10-22 Spencer Street,Melbourne (CBD),1880,2006,5,Commercial Accommodation,High level of accessibility,Main Entrance is at grade and has no steps or ramp,3,0,,-37.820506774, 144.955242123
2015,11,102595,102595,,9-27 Downie Street ,Melbourne (CBD),1953,2003,2,Unoccupied - Unused,Low level of accessibility,All entrances have steps,1,0,,-37.820249534, 144.955520679
2015,11,103989,103989,Aura Apartments,532-536 Flinders Street ,Melbourne (CBD),2013,1981,26,Residential Apartment,Not determined or not applicable,Building is not considered to be publicly accessible so access has not been rated,0,83,1,-37.8202474563, 144.956436186
2015,11,103988,103988,Flinders Towers,546-548 Flinders Street ,Melbourne (CBD),2005,,13,Residential Apartment,Low level of accessibility,All entrances have steps,1,0,,-37.8205099339, 144.956146835
2015,11,103987,103987,Eifel Tower Apartments,550-554 Flinders Street ,Melbourne (CBD),2006,,30,Residential Apartment,Low level of accessibility,All entrances have steps,1,0,,-37.8203648011, 144.955979053
2015,11,103986,103986,Flinders Tower,556-560 Flinders Street ,Melbourne (CBD),,,1,Unoccupied - Under Construction,Low level of accessibility,All entrances have steps,1,0,,-37.8206109647, 144.955766539
2015,11,103985,103985,Markilles Hotel,562-564 Flinders Street ,Melbourne (CBD),1915,2009,5,Commercial Accommodation,High level of accessibility,Main Entrance is at grade and has no steps or ramp,3,0,1,-37.8205693352, 144.955629078
2015,11,103958,103958,,539-545 Flinders Lane ,Melbourne (CBD),1945,1984,2,Equipment Installation,High level of accessibility,Main Entrance is at grade and has no steps or ramp,3,0,,-37.8201629771, 144.956180021
2015,11,103990,103990,,524-528 Flinders Street ,Melbourne (CBD),1945,,2,Public Display Area,Low level of accessibility,All entrances have steps,1,0,,-37.8202759351, 144.956754536
2015,11,103984,103984,Nomads All Nations Backpacker Hotel,566-580 Flinders Street ,Melbourne (CBD),1920,2000,4,Commercial Accommodation,Low level of accessibility,All entrances have steps,1,0,,-37.8207203389, 144.955346461
2015,12,104825,104825,Highlander Mews,1-9 Highlander Lane ,Melbourne (CBD),1984,,3,House/Townhouse,Not determined or not applicable,Building is not considered to be publicly accessible so access has not been rated,0,0,,-37.819924105, 144.958071712
2015,12,105398,105398,,34 King Street ,Melbourne (CBD),1973,,1,Equipment Installation,Not determined or not applicable,Building is not considered to be publicly accessible so access has not been rated,0,0,,-37.8194303634, 144.957419886
2015,12,105399,105399,,26-32 King Street ,Melbourne (CBD),1911,,4,Entertainment/Recreation - Indoor,Low level of accessibility,All entrances have steps,1,0,,-37.8195293437, 144.957465953
2015,12,105400,105400,,22-24 King Street ,Melbourne (CBD),1890,1988,3,Entertainment/Recreation - Indoor,High level of accessibility,Main Entrance is at grade and has no steps or ramp,3,0,,-37.8196196123, 144.957685218
2015,12,105401,105401,,14-20 King Street ,Melbourne (CBD),1917,1986,2,Entertainment/Recreation - Indoor,High level of accessibility,Main Entrance has ramp,3,0,,-37.8197763452, 144.957714841
2015,12,105402,105402,,8-10 King Street ,Melbourne (CBD),1917,1990,2,Entertainment/Recreation - Indoor,Low level of accessibility,All entrances have steps,1,0,,-37.8199276173, 144.957637844
2015,12,103955,103955,,475-485 Flinders Lane ,Melbourne (CBD),1988,,4,Office,High level of accessibility,Main Entrance is at grade and has no steps or ramp,3,0,,-37.8193689148, 144.958100062
2015,12,104824,104824,,11A Highlander Lane ,Melbourne (CBD),1917,,3,Entertainment/Recreation - Indoor,Low level of accessibility,All entrances have steps,1,0,,-37.8197033437, 144.957970182
2015,12,110091,110091,15W,15-33 William Street,Melbourne (CBD),1967,2003,22,Office,High level of accessibility,Main Entrance is at grade and has no steps or ramp,3,105,1,-37.8192157039, 144.959187559
2015,12,103999,103999,The Clarion Gateway Apartments,1-13 William Street,Melbourne (CBD),1967,1997,21,Commercial Accommodation,High level of accessibility,Main Entrance is at grade and has no steps or ramp,3,0,1,-37.8194328533, 144.959510564
2015,12,103998,103998,,452-470 Flinders Street ,Melbourne (CBD),1993,,20,Office,High level of accessibility,Main Entrance is at grade and has no steps or ramp,3,80,1,-37.81946849, 144.958601159
2015,12,103997,103997,Best Western Riverside Apartments,472-482 Flinders Street ,Melbourne (CBD),1990,2000,19,Parking - Commercial Covered,Low level of accessibility,All entrances have steps,1,10,,-37.8197418352, 144.958272131
2015,12,103996,103996,,490 Flinders Street ,Melbourne (CBD),1955,,2,Entertainment/Recreation - Indoor,Low level of accessibility,All entrances have steps,1,0,,-37.8199515462, 144.957991216
2015,12,103995,103995,,492-500 Flinders Street ,Melbourne (CBD),1975,2000,10,Residential Apartment,Low level of accessibility,All entrances have steps,1,0,,-37.8199959933, 144.957828807
2015,12,103956,103956,Highlander Apartments,487-497 Flinders Lane ,Melbourne (CBD),1988,1997,4,Commercial Accommodation,High level of accessibility,Main Entrance is at grade and has no steps or ramp,3,0,,-37.819379929, 144.957712022
2015,12,103994,103994,,502-504 Flinders Street ,Melbourne (CBD),1911,2006,3,Entertainment/Recreation - Indoor,Low level of accessibility,All entrances have steps,1,0,,-37.8200561868, 144.957657059
2015,12,104823,104823,RUTHERGLEN HOUSE,11 Highlander Lane ,Melbourne (CBD),1854,1990,3,House/Townhouse,Not determined or not applicable,Building is not considered to be publicly accessible so access has not been rated,0,,,-37.8194831601, 144.957723259
2015,13,108059,108059,Lombard Buildings,13-17 Queen Street,Melbourne (CBD),1890,1990,7,Office,Low level of accessibility,All entrances have steps,1,0,,-37.818464555, 144.961877382
2015,13,110151,110151,Swann House,22-38 William Street,Melbourne (CBD),1922,1989,11,Office,Moderate level of accessibility,Main entrance has steps; Alternative entrance is step free or has ramp,2,15,1,-37.8187765423, 144.959965294
2015,13,108060,108060,,19-35 Queen Street,Melbourne (CBD),1976,,22,Office,Moderate level of accessibility,Main entrance has steps; Alternative entrance is step free or has ramp,2,52,1,-37.8182274901, 144.961779921
2015,13,108058,108058,BENNELONG HOUSE,7-11 Queen Street,Melbourne (CBD),1886,1994,3,Office,Low level of accessibility,All entrances have steps,1,0,,-37.8186186289, 144.961946064
2015,13,108057,108057,,1-5 Queen Street,Melbourne (CBD),1925,1984,3,Retail - Shop,Low level of accessibility,All entrances have steps,1,0,,-37.8187855188, 144.962023808
2015,13,106439,106439,Reed House,8-12 Market Street ,Melbourne (CBD),1961,2008,6,Office,Low level of accessibility,All entrances have steps,1,0,0,-37.8188687281, 144.961184594
2015,13,106435,106435,The Port Apartments,21-31 Market Street ,Melbourne (CBD),1929,2000,12,Residential Apartment,Low level of accessibility,All entrances have steps,1,14,,-37.8186458463, 144.960420586
2015,13,104002,104002,,376-388 Flinders Street ,Melbourne (CBD),1987,,9,Parking - Commercial Covered,High level of accessibility,Main Entrance is at grade and has no steps or ramp,3,0,,-37.8188462581, 144.961529931
2015,13,104001,104001,Holyman House,390-398 Flinders Street ,Melbourne (CBD),1958,1995,3,Office,Low level of accessibility,All entrances have steps,1,0,,-37.8190149551, 144.961252139
2015,13,104000,104000,Immigration Museum,400-424 Flinders Street ,Melbourne (CBD),1876,1997,3,Public Display Area,Moderate level of accessibility,Main entrance has steps; Alternative entrance is step free or has ramp,2,2,1,-37.8190422132, 144.960359338
2015,13,103954,103954,Tavistock House,381-387 Flinders Lane ,Melbourne (CBD),1850,1997,3,Retail - Shop,Low level of accessibility,All entrances have steps,1,0,,-37.8182509371, 144.96138904
2015,13,106438,106438,Electric House,14-40 Market Street ,Melbourne (CBD),1988,1998,10,Office,High level of accessibility,Main Entrance is at grade and has no steps or ramp,3,40,1,-37.8184879642, 144.961133932
2015,13,109438,109438,,11-27 Tavistock Place ,Melbourne (CBD),1910,,2,Equipment Installation,Not determined or not applicable,Building is not considered to be publicly accessible so access has not been rated,0,0,,-37.8185475248, 144.961525159
2015,14,108115,108115,,20-26 Queen Street,Melbourne (CBD),1922,1987,9,Office,Low level of accessibility,All entrances have steps,1,0,,-37.8181927539, 144.962529863
2015,14,103951,103951,Reid House,341-347 Flinders Lane ,Melbourne (CBD),1909,1998,6,Educational/Research,High level of accessibility,Main Entrance is at grade and has no steps or ramp,3,0,,-37.8178231278, 144.963031342
2015,14,103952,103952,,349-351 Flinders Lane ,Melbourne (CBD),,1999,6,Residential Apartment,Low level of accessibility,All entrances have steps,1,0,,-37.8178989485, 144.962854894
2015,14,103953,103953,Labassa House,353-355 Flinders Lane ,Melbourne (CBD),1920,1997,7,Residential Apartment,Low level of accessibility,All entrances have steps,1,0,,-37.8178601133, 144.962744505
2015,14,104003,104003,Q2 Tower,2-8 Queen Street,Melbourne (CBD),2008,2012,13,Office,High level of accessibility,Main Entrance is at grade and has no steps or ramp,3,10,1,-37.8185871601, 144.962709793
2015,14,104004,104004,,342-348 Flinders Street ,Melbourne (CBD),1956,2005,11,Unoccupied - Unused,High level of accessibility,Main Entrance is at grade and has no steps or ramp,3,0,,-37.8184514882, 144.963076263
2015,14,104005,104005,,334-340 Flinders Street ,Melbourne (CBD),1945,,5,Parking - Commercial Covered,Low level of accessibility,All entrances have steps,1,0,,-37.8183893139, 144.963293245
2015,14,104006,104006,Rendezvous Hotel Melbourne,318-332 Flinders Street ,Melbourne (CBD),1913,1997,10,Commercial Accommodation,Moderate level of accessibility,Main entrance has steps; Alternative entrance is step free or has ramp,2,4,1,-37.8182001001, 144.963576022
2015,14,104007,104007,Victoria University Of Technology,300-316 Flinders Street ,Melbourne (CBD),1991,,19,Parking - Commercial Covered,High level of accessibility,Main Entrance is at grade and has no steps or ramp,3,0,,-37.8180537911, 144.964041007
2015,14,108114,108114,Prime Value House,28-38 Queen Street,Melbourne (CBD),1983,1995,12,Office,High level of accessibility,Main Entrance is at grade and has no steps or ramp,3,0,,-37.8179897281, 144.962437489
2015,14,108116,108116,Alkira House0,18 Queen Street,Melbourne (CBD),1937,1991,10,Residential Apartment,Low level of accessibility,All entrances have steps,1,0,,-37.8182959929, 144.962577278
2015,14,108117,108117,Qbe House,10-16 Queen Street,Melbourne (CBD),1972,1998,15,Office,Moderate level of accessibility,Main entrance has steps; Alternative entrance is step free or has ramp,2,10,1,-37.8184110559, 144.962630347
2015,14,103169,103169,Elizabeth Chambers,21-23 Elizabeth Street,Melbourne (CBD),1890,,5,Unoccupied - Unused,Low level of accessibility,All entrances have steps,1,0,,-37.8176508393, 144.964416853
2015,14,103950,103950,The Corporate Clearing House,335-339 Flinders Lane ,Melbourne (CBD),1945,1994,6,Office,Low level of accessibility,All entrances have steps,1,0,,-37.8178476506, 144.963225812
2015,14,104008,104008,The Rocke Tompsitt Building,292-298 Flinders Street ,Melbourne (CBD),1908,2002,6,Residential Apartment,High level of accessibility,Main Entrance is at grade and has no steps or ramp,3,0,,-37.8180748913, 144.964353715
2015,14,103167,103167,,11-15 Elizabeth Street,Melbourne (CBD),1963,1988,3,Entertainment/Recreation - Indoor,High level of accessibility,Main Entrance is at grade and has no steps or ramp,3,0,,-37.8178292195, 144.964499582
2015,14,103949,103949,Boydex House,333 Flinders Lane ,Melbourne (CBD),1912,1987,5,Office,Low level of accessibility,All entrances have steps,1,0,,-37.8178176632, 144.963334839
2015,14,103171,103171,Galvin House,27-29 Elizabeth Street,Melbourne (CBD),,,2,Entertainment/Recreation - Indoor,High level of accessibility,Main Entrance is at grade and has no steps or ramp,3,0,,-37.8175452351, 144.964368437
2015,14,103166,103166,,7-9 Elizabeth Street,Melbourne (CBD),,1992,2,Retail - Shop,Low level of accessibility,All entrances have steps,1,0,,-37.8179318527, 144.964550287
2015,14,103168,103168,Excelsior House,17-19 Elizabeth Street,Melbourne (CBD),1927,1993,7,Residential Apartment,Low level of accessibility,All entrances have steps,1,0,,-37.8177153358, 144.964446592
2015,14,103170,103170,South Australia House,25 Elizabeth Street,Melbourne (CBD),1889,,5,Storage,High level of accessibility,Main Entrance is at grade and has no steps or ramp,3,0,,-37.8175984016, 144.964392584
2015,14,101099,101099,Metro Parking,16-26 Bond Street ,Melbourne (CBD),1986,,8,Parking - Commercial Covered,High level of accessibility,Main Entrance has ramp,3,0,,-37.8181457765, 144.963057478
2015,14,103947,103947,The Sebel Melbourne,317-323 Flinders Lane ,Melbourne (CBD),1991,1995,12,Commercial Accommodation,High level of accessibility,Main Entrance is at grade and has no steps or ramp,3,0,1,-37.8177147854, 144.963723796
2015,14,103165,103165,Hosies House,1-5 Elizabeth Street,Melbourne (CBD),1956,1987,11,Office,High level of accessibility,Main Entrance is at grade and has no steps or ramp,3,0,,-37.8180566554, 144.964607953
2015,14,103948,103948,Lane Centre,325-331 Flinders Lane ,Melbourne (CBD),1900,1986,5,Office,Low level of accessibility,All entrances have steps,1,0,,-37.8177582616, 144.963491031
2015,14,103172,103172,,31-39 Elizabeth Street,Melbourne (CBD),1966,1990,13,Commercial Accommodation,Not determined or not applicable,Configuration of entrance does not fit into any of the other categories,0,0,1,-37.8174187767, 144.964331578
2015,14,103946,103946,,313-315 Flinders Lane ,Melbourne (CBD),1950,1988,7,Office,Low level of accessibility,All entrances have steps,1,0,,-37.8176391836, 144.96385074
2015,14,103945,103945,Reliance House,301-311 Flinders Lane ,Melbourne (CBD),1914,1989,6,Educational/Research,Moderate level of accessibility,Main entrance has steps; Alternative entrance is step free or has ramp,2,0,1,-37.8175550779, 144.964059143
2015,14,103911,103911,,2-4 Mill Place,Melbourne (CBD),1860,2000,3,Unoccupied - Unused,Low level of accessibility,All entrances have steps,1,0,,-37.8177576434, 144.964152951
2015,15,109260,109260,,15-19 Swanston Street ,Melbourne (CBD),1945,1983,2,Entertainment/Recreation - Indoor,High level of accessibility,Main Entrance is at grade and has no steps or ramp,3,0,,-37.8170970168, 144.966834155
2015,15,104012,104012,YOORALLA,244-248 Flinders Street ,Melbourne (CBD),1945,1998,5,Office,High level of accessibility,Main Entrance is at grade and has no steps or ramp,3,0,,-37.8174821349, 144.966168939
2015,15,109263,109263,Nicohlas Building,31-41 Swanston Street ,Melbourne (CBD),1926,1992,10,Workshop/Studio,High level of accessibility,Main Entrance is at grade and has no steps or ramp,3,0,,-37.816742224, 144.966704086
2015,15,573408,573408,Cae City Centre,17-21 Degraves Street ,Melbourne (CBD),1891,,8,Educational/Research,Moderate level of accessibility,Main entrance has steps; Alternative entrance is step free or has ramp,2,0,,-37.817296307, 144.965586176
2015,15,109259,109259,,13 Swanston Street ,Melbourne (CBD),1945,,2,Storage,High level of accessibility,Main Entrance is at grade and has no steps or ramp,3,0,,-37.8171601914, 144.966898914
2015,15,109258,109258,McDonalds,9-11 Swanston Street ,Melbourne (CBD),1991,1995,3,Entertainment/Recreation - Indoor,High level of accessibility,Main Entrance is at grade and has no steps or ramp,3,0,,-37.8172391811, 144.966931598
2015,15,109257,109257,Young  And Jacksons Hotel,1-7 Swanston Street ,Melbourne (CBD),1861,1922,3,Entertainment/Recreation - Indoor,High level of accessibility,Main Entrance is at grade and has no steps or ramp,3,0,,-37.817356002, 144.967022998
2015,15,104015,104015,,222-224 Flinders Street ,Melbourne (CBD),1856,1990,3,Retail - Shop,High level of accessibility,Main Entrance is at grade and has no steps or ramp,3,0,,-37.8174187015, 144.966809119
2015,15,104014,104014,Port Phiillip Arcade,228-236 Flinders Street ,Melbourne (CBD),1961,1987,3,Educational/Research,High level of accessibility,Main Entrance is at grade and has no steps or ramp,3,0,,-37.8172487798, 144.966551699
2015,15,104013,104013,Unilodge on Flinders,238-242 Flinders Street ,Melbourne (CBD),1932,1999,14,Student Accommodation,High level of accessibility,Main Entrance is at grade and has no steps or ramp,3,0,,-37.8173321851, 144.966353203
2015,15,109261,109261,Commonwealth Bank,21-25 Swanston Street ,Melbourne (CBD),1926,1990,2,Retail - Shop,Low level of accessibility,All entrances have steps,1,0,,-37.8169819252, 144.966791195
2015,15,103328,103328,River View House,274-282 Flinders Street ,Melbourne (CBD),1968,2014,17,Retail - Shop,High level of accessibility,Main Entrance is at grade and has no steps or ramp,3,0,1,-37.8176364948, 144.96509499
2015,15,109262,109262,,27-29 Swanston Street ,Melbourne (CBD),1945,2012,3,Entertainment/Recreation - Indoor,High level of accessibility,Main Entrance is at grade and has no steps or ramp,3,0,,-37.8168880552, 144.966772438
2015,15,104011,104011,,250-254 Flinders Street ,Melbourne (CBD),,2000,4,Commercial Accommodation,Moderate level of accessibility,Entrance(s) have limited access via a small lip or a steep ramp,2,0,,-37.8175203719, 144.965997337
2015,15,103327,103327,ANA Building,28-32 Elizabeth Street,Melbourne (CBD),1938,1999,9,Educational/Research,High level of accessibility,Main Entrance is at grade and has no steps or ramp,3,0,,-37.8172989372, 144.964881634
2015,15,103939,103939,,237-239 Flinders Lane ,Melbourne (CBD),1940,1987,8,Residential Apartment,Low level of accessibility,All entrances have steps,1,0,,-37.8168235541, 144.966425504
2015,15,103940,103940,Bible House,241-243 Flinders Lane ,Melbourne (CBD),1898,1993,7,Residential Apartment,Low level of accessibility,All entrances have steps,1,0,,-37.8168597409, 144.966302752
2015,15,103941,103941,Ross House,247-251 Flinders Lane ,Melbourne (CBD),1898,1987,5,Office,High level of accessibility,Main Entrance is at grade and has no steps or ramp,3,4,1,-37.8169934095, 144.966170656
2015,15,103942,103942,,253-265 Flinders Lane ,Melbourne (CBD),1899,2003,6,Educational/Research,Moderate level of accessibility,Main entrance has steps; Alternative entrance is step free or has ramp,2,22,1,-37.8170629122, 144.965902811
2015,15,103943,103943,The Lane Building,267-275 Flinders Lane ,Melbourne (CBD),1899,1997,6,Commercial Accommodation,Low level of accessibility,All entrances have steps,1,0,,-37.8171010519, 144.965484392
2015,15,103944,103944,Tomasetti House,277-279 Flinders Lane ,Melbourne (CBD),1853,1989,7,Educational/Research,Low level of accessibility,All entrances have steps,1,0,,-37.8172420138, 144.965297858
2015,15,104009,104009,Citigate Melbourne Hotel,270-272 Flinders Street ,Melbourne (CBD),1977,2002,15,Commercial Accommodation,High level of accessibility,Main Entrance is at grade and has no steps or ramp,3,0,,-37.8176955273, 144.965348402
2015,15,104010,104010,The Empire Apartments,256-268 Flinders Street ,Melbourne (CBD),2006,,14,Residential Apartment,High level of accessibility,Main Entrance is at grade and has no steps or ramp,3,0,,-37.817607806, 144.965626371
2015,15,103326,103326,Carlow House,281-291 Flinders Lane ,Melbourne (CBD),1939,2010,11,Office,High level of accessibility,Main Entrance is at grade and has no steps or ramp,3,0,,-37.817190238, 144.964967822
2015,16,104017,104017,,194-196 Flinders Street ,Melbourne (CBD),1891,2010,6,Educational/Research,High level of accessibility,Main Entrance is at grade and has no steps or ramp,3,0,,-37.8167348818, 144.968143288
2015,16,110761,110760,The Chapter House ,197-209 Flinders Lane ,Melbourne (CBD),1891,1996,4,Office,Low level of accessibility,All entrances have steps,1,0,,-37.8167637776, 144.967694595
2015,16,108532,108532,Cavendish House Apartment,27-37 Russell Street,Melbourne (CBD),1920,1995,9,Residential Apartment,Low level of accessibility,All entrances have steps,1,0,,-37.815987536, 144.969247787
2015,16,108531,108531,Russel Street Theatre,19-25 Russell Street,Melbourne (CBD),1920,2006,1,Unoccupied - Unused,Low level of accessibility,All entrances have steps,1,0,,-37.8161802377, 144.969246437
2015,16,104931,104931,,7-11 Hosier Lane ,Melbourne (CBD),1900,,3,Hospital/Clinic,Low level of accessibility,All entrances have steps,1,0,1,-37.8163817603, 144.968960163
2015,16,104930,104930,,3-5 Hosier Lane ,Melbourne (CBD),1900,1998,3,Office,Low level of accessibility,All entrances have steps,1,0,,-37.816509184, 144.969018392
2015,16,104020,104020,Forum Theatre,150-162 Flinders Street ,Melbourne (CBD),1929,1996,6,Entertainment/Recreation - Indoor,Low level of accessibility,All entrances have steps,1,0,,-37.8164854057, 144.969386562
2015,16,104018,104018,Flinders Gate,172-192 Flinders Street ,Melbourne (CBD),1891,1988,9,Parking - Commercial Covered,High level of accessibility,Main Entrance is at grade and has no steps or ramp,3,0,,-37.8166385141, 144.968542898
2015,16,103932,103932,Flinders Lane Apartments,161-163 Flinders Lane ,Melbourne (CBD),1900,1998,7,Commercial Accommodation,Low level of accessibility,All entrances have steps,1,0,,-37.8160416155, 144.969080241
2015,16,103938,103938,ADELPHI HOTEL,187 Flinders Lane ,Melbourne (CBD),1938,1993,10,Commercial Accommodation,Low level of accessibility,All entrances have steps,1,0,,-37.816357894, 144.968375104
2015,16,103937,103937,Toronto House,183-185 Flinders Lane ,Melbourne (CBD),1924,1992,6,Residential Apartment,Low level of accessibility,All entrances have steps,1,0,,-37.8163179383, 144.968507536
2015,16,103936,103936,179 FLINDERS LANE,179-181 Flinders Lane ,Melbourne (CBD),1911,1989,4,Retail - Showroom,Low level of accessibility,All entrances have steps,1,0,,-37.8162250693, 144.968572295
2015,16,103935,103935,,175-177 Flinders Lane ,Melbourne (CBD),1937,1988,8,Office,Low level of accessibility,All entrances have steps,1,0,,-37.8161864122, 144.968676834
2015,16,103934,103934,,167-173 Flinders Lane ,Melbourne (CBD),1900,2012,6,Unoccupied - Unused,Low level of accessibility,All entrances have steps,1,0,,-37.8161429941, 144.968828052
2015,16,103933,103933,McDonald House,165 Flinders Lane ,Melbourne (CBD),1900,1988,7,Residential Apartment,Low level of accessibility,All entrances have steps,1,0,,-37.816048007, 144.968998605
2015,16,104019,104019,Masonic Club Building,164-170 Flinders Street ,Melbourne (CBD),1927,1996,7,Residential Apartment,Low level of accessibility,All entrances have steps,1,0,,-37.8167092222, 144.969086214
2015,16,104016,110760,St Pauls Cathedral,202 Flinders Street ,Melbourne (CBD),1891,2003,1,"Performances, Conferences, Ceremonies",Moderate level of accessibility,Main entrance has steps; Alternative entrance is step free or has ramp,2,0,,-37.8167637776, 144.967694595
2015,17,104028,104028,Dreman Building,96-98 Flinders Street ,Melbourne (CBD),1920,,6,Office,Moderate level of accessibility,Entrance(s) have limited access via a small lip or a steep ramp,2,0,1,-37.8158971216, 144.971473513
2015,17,104027,104027,100 Flinders Street,100-102 Flinders Street ,Melbourne (CBD),1910,1988,6,Unoccupied - Unused,Low level of accessibility,All entrances have steps,1,0,1,-37.8159391478, 144.971370697
2015,17,104025,104025,114 Flinders Street Car Park,114-128 Flinders Street ,Melbourne (CBD),1990,,6,Parking - Commercial Covered,High level of accessibility,Main Entrance is at grade and has no steps or ramp,3,30,,-37.8159576224, 144.970735312
2015,17,104031,104031,Phoenix Apartments,82 Flinders Street ,Melbourne (CBD),2012,,30,Residential Apartment,High level of accessibility,Main Entrance is at grade and has no steps or ramp,3,0,,-37.815874611, 144.971934326
2015,17,104022,104022,Yarra View Apartments,138-140 Flinders Street ,Melbourne (CBD),1875,2000,8,Residential Apartment,High level of accessibility,Main Entrance is at grade and has no steps or ramp,3,0,,-37.8163727736, 144.97033669
2015,17,574438,574438,Adina Apartments,84-94 Flinders Street ,Melbourne (CBD),2001,,17,Commercial Accommodation,High level of accessibility,Main Entrance is at grade and has no steps or ramp,3,0,1,-37.8158766249, 144.971675651
2015,17,104023,104023,EPSTEIN HOUSE,134-136 Flinders Street ,Melbourne (CBD),1875,,7,Educational/Research,High level of accessibility,Main Entrance is at grade and has no steps or ramp,3,0,,-37.8162956216, 144.970430393
2015,17,107002,107002,The Bond Store,22-30 Oliver Lane ,Melbourne (CBD),1940,2009,6,Residential Apartment,Low level of accessibility,All entrances have steps,1,0,,-37.8159261253, 144.97020281
2015,17,107003,107003,,10-20 Oliver Lane ,Melbourne (CBD),1945,2006,5,Office,High level of accessibility,Main Entrance is at grade and has no steps or ramp,3,0,1,-37.8161283981, 144.970291159
2015,17,108593,108593,The Brooks,24-30 Russell Street,Melbourne (CBD),1993,2000,8,Residential Apartment,Low level of accessibility,All entrances have steps,1,0,,-37.815997981, 144.96989484
2015,17,110277,110277,,11-15 Duckboard Place ,Melbourne (CBD),1910,,2,Storage,Not determined or not applicable,Building is not considered to be publicly accessible so access has not been rated,0,0,,-37.8155901754, 144.971315437
2015,17,104021,104021,2 Russel Street,142-148 Flinders Street ,Melbourne (CBD),2008,2012,9,Office,High level of accessibility,Main Entrance is at grade and has no steps or ramp,3,0,,-37.8164074737, 144.970086326
2015,17,104024,104024,,130-132 Flinders Street ,Melbourne (CBD),1885,1995,5,Residential Apartment,Low level of accessibility,All entrances have steps,1,0,,-37.8162765141, 144.970542958
2015,17,108594,108594,CVA,14-22 Russell Street,Melbourne (CBD),1968,2004,3,Office,High level of accessibility,Main Entrance has ramp,3,0,,-37.8161816592, 144.969980827
2015,17,103923,103923,,103-105 Flinders Lane ,Melbourne (CBD),1886,,2,Entertainment/Recreation - Indoor,Low level of accessibility,All entrances have steps,1,0,,-37.8155673321, 144.970964312
2015,17,104026,104026,108 Flinders St,104-112 Flinders Street ,Melbourne (CBD),2013,,13,Residential Apartment,High level of accessibility,Main Entrance is at grade and has no steps or ramp,3,0,,-37.8160000077, 144.971154442
2015,17,103592,103592,Mercer,11-37 Exhibition Street ,Melbourne (CBD),2005,,18,Office,High level of accessibility,Main Entrance is at grade and has no steps or ramp,3,13,1,-37.8154615205, 144.971726234
2015,17,103920,103920,Swiss Club of Victoria,87-89 Flinders Lane ,Melbourne (CBD),1973,1997,3,Entertainment/Recreation - Indoor,Low level of accessibility,All entrances have steps,1,0,,-37.8154297541, 144.971392543
2015,17,103922,103922,,95-101 Flinders Lane ,Melbourne (CBD),1896,2012,1,Unoccupied - Unused,Low level of accessibility,All entrances have steps,1,0,,-37.8155324662, 144.971103906
2015,17,103924,103924,,107-109 Flinders Lane ,Melbourne (CBD),1910,1988,5,Office,Low level of accessibility,All entrances have steps,1,0,,-37.8156064542, 144.970834369
2015,17,103925,103925,121 Flinders Lane,121-123 Flinders Lane ,Melbourne (CBD),1900,1988,7,Office,Low level of accessibility,All entrances have steps,1,0,,-37.815670086, 144.970513161
2015,17,103926,103926,Higson Building,125-127 Flinders Lane ,Melbourne (CBD),1920,1998,5,Office,Low level of accessibility,All entrances have steps,1,0,,-37.8156887506, 144.970399824
2015,17,103927,103927,,129-131 Flinders Lane ,Melbourne (CBD),1857,,2,Storage,Low level of accessibility,All entrances have steps,1,0,,-37.8156992358, 144.970225355
2015,17,103931,103931,The Ivy,145-149 Flinders Lane ,Melbourne (CBD),1902,2012,4,Office,Low level of accessibility,All entrances have steps,1,0,,-37.8158367531, 144.969750312
2015,17,103928,103928,,133-135 Flinders Lane ,Melbourne (CBD),1910,2007,2,Entertainment/Recreation - Indoor,Low level of accessibility,All entrances have steps,1,0,,-37.8157353604, 144.970158531
2015,17,103591,103591,,1-9 Exhibition Street ,Melbourne (CBD),1945,1992,8,Residential Apartment,Low level of accessibility,All entrances have steps,1,0,,-37.8158424616, 144.972041157
2015,17,103929,103929,Bank of New South Wales,137-139 Flinders Lane ,Melbourne (CBD),1924,2000,3,Office,Low level of accessibility,All entrances have steps,1,0,,-37.8157315984, 144.970042511
2015,17,103930,103930,PAWSON HOUSE,141-143 Flinders Lane ,Melbourne (CBD),1920,,7,Office,Low level of accessibility,All entrances have steps,1,0,1,-37.8157978336, 144.969879859
2015,17,103921,103921,Duckboard House,91-93 Flinders Lane ,Melbourne (CBD),1949,2008,5,Entertainment/Recreation - Indoor,High level of accessibility,Main Entrance is at grade and has no steps or ramp,3,0,,-37.8154350554, 144.971222828
2015,18,103917,103917,Manhattan Apartments,57-59 Flinders Lane ,Melbourne (CBD),1929,1998,8,Commercial Accommodation,Low level of accessibility,All entrances have steps,1,0,,-37.8149838714, 144.972804937
2015,18,108975,108975,Shell House,1-9 Spring Street ,Melbourne (CBD),1989,,32,Office,High level of accessibility,Main Entrance is at grade and has no steps or ramp,3,100,1,-37.8150520128, 144.973971636
2015,18,111072,111072,,32-44 Flinders Street ,Melbourne (CBD),1998,,10,Parking - Commercial Covered,High level of accessibility,Main Entrance is at grade and has no steps or ramp,3,17,,-37.8152668254, 144.973202106
2015,18,111071,111071,Herald Living Apartments,46-74 Flinders Street ,Melbourne (CBD),1923,2006,39,Office,High level of accessibility,Main Entrance is at grade and has no steps or ramp,3,93,1,-37.8154618055, 144.972720932
2015,18,111021,111021,,55 Flinders Lane ,Melbourne (CBD),1929,1998,2,Entertainment/Recreation - Indoor,Low level of accessibility,All entrances have steps,1,0,,-37.8148554959, 144.972835271
2015,18,108977,108977,The Philadelphia Apartments,25-31 Spring Street ,Melbourne (CBD),1974,2001,25,Residential Apartment,Low level of accessibility,All entrances have steps,1,0,,-37.8145456094, 144.974101918
2015,18,108976,108976,Mercure Melbourne Treasury Gardens,13-23 Spring Street ,Melbourne (CBD),1972,1999,14,Commercial Accommodation,Low level of accessibility,All entrances have steps,1,0,,-37.8147701494, 144.974205236
2015,18,103912,103912,Milton House,21-25 Flinders Lane ,Melbourne (CBD),1901,1988,3,Office,Low level of accessibility,All entrances have steps,1,0,,-37.8147393694, 144.973552594
2015,18,103918,103918,Sargood House,61-73 Flinders Lane ,Melbourne (CBD),1926,1998,8,Residential Apartment,Low level of accessibility,All entrances have steps,1,0,,-37.815064744, 144.972512309
2015,18,103915,103915,,37-45 Flinders Lane ,Melbourne (CBD),1930,,2,Retail - Showroom,Low level of accessibility,All entrances have steps,1,0,,-37.8149402233, 144.973134563
2015,18,103914,103914,,31-35 Flinders Lane ,Melbourne (CBD),1930,,5,Office,Low level of accessibility,All entrances have steps,1,10,,-37.8148947555, 144.973292423
2015,18,103913,103913,Sackville House,27-29 Flinders Lane ,Melbourne (CBD),1927,1999,5,Residential Apartment,Low level of accessibility,All entrances have steps,1,0,,-37.8148555997, 144.973422066
2015,18,104033,104033,Hotel Lindrum,26-30 Flinders Street ,Melbourne (CBD),1920,1999,5,Commercial Accommodation,Moderate level of accessibility,Main entrance has steps; Alternative entrance is step free or has ramp,2,0,,-37.8152864736, 144.97358992
2015,18,103919,103919,Alley Building,75-77 Flinders Lane ,Melbourne (CBD),1920,2004,6,Office,Low level of accessibility,All entrances have steps,1,0,,-37.8151451239, 144.972239874
2015,21,102106,102106,595 Collins Street (Former Transport House),589-605 Collins Street,Melbourne (CBD),1984,2007,18,Office,High level of accessibility,Main Entrance is at grade and has no steps or ramp,3,50,1,-37.8193678824, 144.955210542
2015,21,606461,606461,Batmans Hill on Collins Hotel,607-623 Collins Street,Melbourne (CBD),2005,2009,6,Commercial Accommodation,Moderate level of accessibility,Main entrance has steps; Alternative entrance is step free or has ramp,2,0,,-37.8192931156, 144.954690043
2015,21,579252,579252,,559-587 Collins Street,Melbourne (CBD),2015,,26,Unoccupied - Under Construction,Not determined or not applicable,Building is not considered to be publicly accessible so access has not been rated,0,0,,-37.8190204399, 144.955727485
2015,21,108970,108970,Great Southern Hotel (Former Hotel Enterprize),44-64 Spencer Street,Melbourne (CBD),1950,2009,9,Commercial Accommodation,Not determined or not applicable,Configuration of entrance does not fit into any of the other categories,0,12,1,-37.8197004744, 144.954883061
2015,21,103960,103960,,522-552 Flinders Lane ,Melbourne (CBD),1982,1997,12,Parking - Commercial Covered,High level of accessibility,Main Entrance is at grade and has no steps or ramp,3,0,,-37.8194285534, 144.955922878
2015,21,102105,102105,Enterprise House - 555 Collins Street,539-557 Collins Street,Melbourne (CBD),1975,1995,23,Unoccupied - Unused,High level of accessibility,Main Entrance is at grade and has no steps or ramp,3,100,1,-37.8188040664, 144.956361875
2015,21,105296,105296,Exchange Square,43-61 King Street ,Melbourne (CBD),1988,2000,8,Office,High level of accessibility,Main Entrance has ramp,3,0,1,-37.8192171945, 144.956551527
2015,22,105394,105394,York Butter Factories,62-66 King Street ,Melbourne (CBD),1855,0,2,Office,Low level of accessibility,All entrances have steps,1,0,,-37.8187413684, 144.957140915
2015,22,110665,110661,Challenge Bank (South) Tower,459 Collins Street,Melbourne (CBD),1990,1997,15,Office,Not determined or not applicable,Configuration of entrance does not fit into any of the other categories,0,0,,-37.818177241, 144.958923708
2015,22,110092,110092,45 William Street,35-47 William Street,Melbourne (CBD),1983,2001,15,Office,High level of accessibility,Main Entrance is at grade and has no steps or ramp,3,0,,-37.8185801709, 144.959122102
2015,22,105397,105397,,42-44 King Street ,Melbourne (CBD),1883,1990,2,Entertainment/Recreation - Indoor,Moderate level of accessibility,Main entrance has steps; Alternative entrance is step free or has ramp,2,0,,-37.8191836735, 144.957322152
2015,22,105395,105395,,54-60 King Street ,Melbourne (CBD),1910,1992,2,Entertainment/Recreation - Indoor,Low level of accessibility,All entrances have steps,1,0,,-37.8188994102, 144.957190714
2015,2503,618007,618007,,32 Little Bendall Street ,Kensington,1997,,2,House/Townhouse,,,,,,-37.7892916891, 144.92336398
2015,22,105393,105393,,68-70 King Street ,Melbourne (CBD),1890,1999,1,Entertainment/Recreation - Indoor,Low level of accessibility,All entrances have steps,1,0,,-37.8186372115, 144.957034879
2015,22,102104,102104,Rialto Towers,505-535 Collins Street,Melbourne (CBD),1986,2000,56,Office,High level of accessibility,Main Entrance is at grade and has no steps or ramp,3,150,1,-37.818662603, 144.957550966
2015,22,102103,102103,Intercontinental Melbourne The Rialto,487-503 Collins Street,Melbourne (CBD),1890,2008,11,Commercial Accommodation,High level of accessibility,Main Entrance is at grade and has no steps or ramp,3,0,,-37.818538771, 144.958118498
2015,22,102102,102102,The Olderfleet Building,471-485 Collins Street,Melbourne (CBD),1887,2001,9,Parking - Commercial Covered,Moderate level of accessibility,Main entrance has steps; Alternative entrance is step free or has ramp,2,30,1,-37.8184145037, 144.958548373
2015,22,102101,110661,MLC (North) Tower,459 Collins Street,Melbourne (CBD),1972,1990,32,Office,High level of accessibility,Main Entrance is at grade and has no steps or ramp,3,0,,-37.818177241, 144.958923708
2015,22,105396,105396,,46-52 King Street ,Melbourne (CBD),1859,1975,2,Entertainment/Recreation - Indoor,Low level of accessibility,All entrances have steps,1,0,,-37.8190586719, 144.957264997
2015,23,102100,102100,,433-455 Collins Street,Melbourne (CBD),1965,2015,21,Unoccupied - Under Renovation,Low level of accessibility,All entrances have steps,1,0,,-37.8179777694, 144.959876637
2015,23,603904,603904,A.B. Wine Tonic Stores,384-386 Flinders Lane ,Melbourne (CBD),1930,2011,4,Unoccupied - Under Renovation,Low level of accessibility,All entrances have steps,1,0,,-37.8178976031, 144.961172026
2015,23,108063,108063,SDA House,53-57 Queen Street,Melbourne (CBD),1957,1995,12,Office,High level of accessibility,Main Entrance is at grade and has no steps or ramp,3,0,1,-37.8175588493, 144.961532314
2015,23,108062,108062,,43-51 Queen Street,Melbourne (CBD),1957,,11,Office,Low level of accessibility,All entrances have steps,1,0,,-37.8177381247, 144.961614336
2015,23,108061,108061,The Madison,37-41 Queen Street,Melbourne (CBD),1936,1993,13,Residential Apartment,Low level of accessibility,All entrances have steps,1,0,,-37.8178962155, 144.961686659
2015,23,106437,106437,Treasury Funds House,42-52 Market Street ,Melbourne (CBD),1969,1996,16,Office,High level of accessibility,Main Entrance is at grade and has no steps or ramp,3,0,,-37.8180461772, 144.960818561
2015,23,103962,103962,Telstra Batman Exchange,376-382 Flinders Lane ,Melbourne (CBD),1945,1945,7,Equipment Installation,Low level of accessibility,All entrances have steps,1,0,,-37.817832195, 144.961350823
2015,23,606103,606103,,388-394 Flinders Lane ,Melbourne (CBD),,,2,Parking - Commercial Covered,High level of accessibility,Main Entrance is at grade and has no steps or ramp,3,0,,-37.8179919841, 144.96105715
2015,23,102099,102099,Trustees House,419-429 Collins Street,Melbourne (CBD),1931,1988,9,Office,Low level of accessibility,All entrances have steps,1,0,,-37.8175288164, 144.960653126
2015,23,102098,102098,AFT House,415-417 Collins Street,Melbourne (CBD),1945,1984,3,Entertainment/Recreation - Indoor,Low level of accessibility,All entrances have steps,1,0,,-37.8174681416, 144.960868075
2015,23,102097,102097,Commercial Union Chambers,409-413 Collins Street,Melbourne (CBD),1930,1997,8,Office,Low level of accessibility,All entrances have steps,1,0,,-37.8174975831, 144.961010293
2015,23,102096,102096,Aldersgate House,405-407 Collins Street,Melbourne (CBD),1923,2000,7,Office,Low level of accessibility,All entrances have steps,1,0,,-37.817456764, 144.961113132
2015,23,102095,102095,The Trustees Building,401-403 Collins Street,Melbourne (CBD),1937,1985,10,Office,Low level of accessibility,All entrances have steps,1,0,,-37.8173963638, 144.961222905
2015,23,102094,102094,BNZA House,389-399 Collins Street,Melbourne (CBD),1890,1983,9,Unoccupied - Unused,Low level of accessibility,All entrances have steps,1,0,,-37.8173062015, 144.961439006
2015,23,106436,106436,Oaks On Market,54-60 Market Street ,Melbourne (CBD),1967,2004,25,Commercial Accommodation,Moderate level of accessibility,Main entrance has steps; Alternative entrance is step free or has ramp,2,0,,-37.8177807587, 144.960828296
2015,24,103175,103175,,59-65 Elizabeth Street,Melbourne (CBD),1910,2003,6,Residential Apartment,Low level of accessibility,All entrances have steps,1,0,,-37.8168406331, 144.964070499
2015,24,110765,110765,Leicester House,302-308 Flinders Lane ,Melbourne (CBD),1886,2001,6,Residential Apartment,High level of accessibility,Main Entrance is at grade and has no steps or ramp,3,0,,-37.8171996691, 144.963897061
2015,24,110764,110764,,310 Flinders Lane ,Melbourne (CBD),1914,2003,8,Residential Apartment,Low level of accessibility,All entrances have steps,1,0,,-37.8172646785, 144.963682791
2015,24,110763,110763,The Mark on Collins,319-325 Collins Street,Melbourne (CBD),1965,2000,13,Residential Apartment,High level of accessibility,Main Entrance is at grade and has no steps or ramp,3,0,,-37.8168663488, 144.963649805
2015,24,110762,110762,IOOF Centre,303-317 Collins Street,Melbourne (CBD),1973,1987,30,Office,High level of accessibility,Main Entrance is at grade and has no steps or ramp,3,15,1,-37.8166270781, 144.963823141
2015,24,108113,108113,Perprtual Trustees Building,40-52 Queen Street,Melbourne (CBD),1973,2001,15,Office,High level of accessibility,Main Entrance has ramp,3,0,,-37.8175857183, 144.962188553
2015,24,103173,103173,APA Building,43-53 Elizabeth Street,Melbourne (CBD),1981,1999,5,Unoccupied - Unused,Moderate level of accessibility,Entrance(s) have limited access via a small lip or a steep ramp,2,0,,-37.8171207928, 144.9641977
2015,24,102093,102093,,375-383 Collins Street,Melbourne (CBD),1967,1986,17,Office,Moderate level of accessibility,Main entrance has steps; Alternative entrance is step free or has ramp,2,0,,-37.817143992, 144.962005389
2015,24,102092,102092,Optus Centre,359-373 Collins Street,Melbourne (CBD),1975,1992,33,Office,High level of accessibility,Main Entrance is at grade and has no steps or ramp,3,20,,-37.8172843248, 144.962441845
2015,24,102091,102091,357 Collins Street,351-357 Collins Street,Melbourne (CBD),1968,2010,25,Office,High level of accessibility,Main Entrance has ramp,3,120,1,-37.8172270431, 144.962788841
2015,24,102089,102089,333 Collins Street,327-343 Collins Street,Melbourne (CBD),1990,,29,Office,High level of accessibility,Main Entrance is at grade and has no steps or ramp,3,184,1,-37.8170670468, 144.96325377
2015,24,103174,103174,,55-57 Elizabeth Street,Melbourne (CBD),1902,2000,8,Residential Apartment,High level of accessibility,Main Entrance has ramp,3,0,,-37.8169724245, 144.96413018
2015,24,102090,102090,Chimaera Capital,345-349 Collins Street,Melbourne (CBD),1888,1994,6,Office,Low level of accessibility,All entrances have steps,1,0,,-37.8169335073, 144.962816703
2015,25,109266,109266,City Square Motel,67-73 Swanston Street ,Melbourne (CBD),1954,,8,Commercial Accommodation,High level of accessibility,Main Entrance is at grade and has no steps or ramp,3,0,,-37.8160339304, 144.966489893
2015,25,102087,102087,ROYAL BANK CHAMBERS,287-301 Collins Street,Melbourne (CBD),1940,2012,10,Office,High level of accessibility,Main Entrance is at grade and has no steps or ramp,3,0,,-37.8164229524, 144.964491037
2015,25,110857,110857,The Collins,233-239 Collins Street,Melbourne (CBD),1959,2001,13,Commercial Accommodation,High level of accessibility,Main Entrance has ramp,3,0,1,-37.8160280531, 144.96608814
2015,25,103963,103963,Flinders House,238-244 Flinders Lane ,Melbourne (CBD),1860,2000,6,Residential Apartment,High level of accessibility,Main Entrance is at grade and has no steps or ramp,3,0,,-37.8164950293, 144.965962392
2015,25,103964,103964,Manchester House,30-44 Manchester Lane ,Melbourne (CBD),1912,2000,8,Residential Apartment,High level of accessibility,Main Entrance is at grade and has no steps or ramp,3,0,,-37.8164264609, 144.966200688
2015,25,103965,103965,Invicta House,226-232 Flinders Lane ,Melbourne (CBD),1945,2000,7,Commercial Accommodation,Low level of accessibility,All entrances have steps,1,0,,-37.8164046727, 144.966394201
2015,25,109265,109265,,65 Swanston Street ,Melbourne (CBD),1904,2014,4,Unoccupied - Unused,High level of accessibility,Main Entrance is at grade and has no steps or ramp,3,0,,-37.8161297501, 144.966532723
2015,25,102084,102084,Centreway Arcade,259-263 Collins Street,Melbourne (CBD),1913,1988,7,Unoccupied - Unused,High level of accessibility,Main Entrance is at grade and has no steps or ramp,3,0,,-37.8162063119, 144.965340705
2015,25,109264,109264,55 Swanston Street,45-63 Swanston Street ,Melbourne (CBD),1974,2004,15,Educational/Research,High level of accessibility,Main Entrance is at grade and has no steps or ramp,3,0,,-37.8163274981, 144.966622781
2015,25,102083,102083,Emirates House,251-257 Collins Street,Melbourne (CBD),1973,2001,16,Office,High level of accessibility,Main Entrance is at grade and has no steps or ramp,3,0,,-37.8163506179, 144.965651074
2015,25,102082,102082,Newspaper House,247-249 Collins Street,Melbourne (CBD),1933,2014,7,Unoccupied - Unused,High level of accessibility,Main Entrance is at grade and has no steps or ramp,3,0,,-37.8160996221, 144.965724291
2015,25,102081,102081,Merrigold on Collins,241-245 Collins Street,Melbourne (CBD),1912,1987,6,Residential Apartment,Low level of accessibility,All entrances have steps,1,0,,-37.8160667269, 144.965831257
2015,25,102079,102079,Wales Corner,221-231 Collins Street,Melbourne (CBD),1964,1991,17,Office,High level of accessibility,Main Entrance is at grade and has no steps or ramp,3,0,,-37.8158447642, 144.966330419
2015,25,101789,101789,Centre House,252-254 Flinders Lane ,Melbourne (CBD),1945,,4,Unoccupied - Unused,Not determined or not applicable,Configuration of entrance does not fit into any of the other categories,0,0,,-37.816603299, 144.965596579
2015,25,101788,101788,Majorca Building,258-260 Flinders Lane ,Melbourne (CBD),1930,1997,8,Residential Apartment,Not determined or not applicable,Configuration of entrance does not fit into any of the other categories,0,0,,-37.8166446843, 144.965474418
2015,2503,617775,617775,,10 Little Bendall Street ,Kensington,1997,,2,House/Townhouse,,,,,,-37.7889052302, 144.923815354
2015,25,102086,102086,National Australia Bank,271-285 Collins Street,Melbourne (CBD),1926,2012,12,Office,High level of accessibility,Main Entrance is at grade and has no steps or ramp,3,64,1,-37.8166278089, 144.96493308
2015,25,102085,102085,,265-269 Collins Street,Melbourne (CBD),1960,1982,11,Office,High level of accessibility,Main Entrance is at grade and has no steps or ramp,3,0,,-37.8162526883, 144.965156367
2015,26,102077,102077,Regent 187 on Collins,181-187 Collins Street,Melbourne (CBD),1936,1999,7,Residential Apartment,Low level of accessibility,All entrances have steps,1,0,,-37.8154314539, 144.967811199
2015,26,109418,109418,The Westin Melbourne,199-209 Collins Street,Melbourne (CBD),2000,,15,Commercial Accommodation,Not determined or not applicable,Configuration of entrance does not fit into any of the other categories,0,22,1,-37.8158477736, 144.967430384
2015,26,109417,109417,Regent Theatre ,191-197 Collins Street,Melbourne (CBD),1947,1996,8,"Performances, Conferences, Ceremonies",Low level of accessibility,All entrances have steps,1,0,,-37.8157994275, 144.967798528
2015,26,102078,102078,The Box,189 Collins Street,Melbourne (CBD),1997,,3,Entertainment/Recreation - Indoor,High level of accessibility,Main Entrance is at grade and has no steps or ramp,3,0,,-37.8154667744, 144.967706573
2015,26,102076,102076,,179 Collins Street,Melbourne (CBD),1900,1990,2,Storage,Low level of accessibility,All entrances have steps,1,0,,-37.8153675728, 144.967914249
2015,26,102075,102075,KURRAJONG HOUSE,175-177 Collins Street,Melbourne (CBD),1926,1987,10,Office,Low level of accessibility,All entrances have steps,1,0,,-37.815343935, 144.968025999
2015,26,102074,102074,BHP Billiton,167-173 Collins Street,Melbourne (CBD),,,20,Office,High level of accessibility,Main Entrance is at grade and has no steps or ramp,3,280,1,-37.8156378783, 144.968289171
2015,26,102073,102073,161 Collins Street,141-165 Collins Street,Melbourne (CBD),1931,1991,11,Office,High level of accessibility,Main Entrance is at grade and has no steps or ramp,3,76,1,-37.815431779, 144.968755329
2015,26,103967,103967,,160-162 Flinders Lane ,Melbourne (CBD),1950,,6,Equipment Installation,Not determined or not applicable,Building is not considered to be publicly accessible so access has not been rated,0,0,,-37.815781585, 144.968911027
2015,27,102064,102064,Harley House,69-73 Collins Street,Melbourne (CBD),1923,2003,7,Office,High level of accessibility,Main Entrance is at grade and has no steps or ramp,3,0,,-37.8143446046, 144.971348894
2015,27,103595,103595,ACCI House,53-55 Exhibition Street ,Melbourne (CBD),1923,1988,8,Office,Low level of accessibility,All entrances have steps,1,0,,-37.8147155288, 144.97143465
2015,27,597183,102071,Grand Hyatt Melbourne Plaza,121-131 Collins Street,Melbourne (CBD),1986,2008,1,Parking - Commercial Covered,High level of accessibility,Main Entrance is at grade and has no steps or ramp,3,0,,-37.8151681112, 144.969846693
2015,27,541562,102071,Grand Hyatt Melbourne,121-131 Collins Street,Melbourne (CBD),1986,2008,28,Commercial Accommodation,High level of accessibility,Main Entrance is at grade and has no steps or ramp,3,0,1,-37.8151681112, 144.969846693
2015,27,108592,108592,,42-44 Russell Street,Melbourne (CBD),1945,2012,4,Retail - Shop,Moderate level of accessibility,Main entrance has steps; Alternative entrance is step free or has ramp,2,0,1,-37.8155674156, 144.969740165
2015,27,104216,104216,,27 George Parade ,Melbourne (CBD),1900,,2,Retail - Shop,Low level of accessibility,All entrances have steps,1,0,,-37.8148587627, 144.970064625
2015,27,104215,104215,M C C SUBSTATION,23-25 George Parade ,Melbourne (CBD),1960,,1,Equipment Installation,Not determined or not applicable,Building is not considered to be publicly accessible so access has not been rated,0,0,,-37.8149199392, 144.970090979
2015,27,103968,103968,,41-43 Exhibition Street ,Melbourne (CBD),2014,,22,Office,Not determined or not applicable,Building is not considered to be publicly accessible so access has not been rated,0,50,1,-37.8150153471, 144.97157455
2015,27,103596,103596,ASF House,57-63 Exhibition Street ,Melbourne (CBD),1969,1988,15,Office,High level of accessibility,Main Entrance is at grade and has no steps or ramp,3,15,1,-37.814606133, 144.971315179
2015,27,103594,103594,,49-51 Exhibition Street ,Melbourne (CBD),1960,1996,8,Office,Low level of accessibility,All entrances have steps,1,0,,-37.8148080724, 144.97147928
2015,27,103593,103593,,45-47 Exhibition Street ,Melbourne (CBD),1920,1987,5,Office,Low level of accessibility,All entrances have steps,1,0,,-37.8149089426, 144.971525579
2015,27,102072,102072,,133-139 Collins Street,Melbourne (CBD),1886,1986,5,Office,Moderate level of accessibility,Main entrance has steps; Alternative entrance is step free or has ramp,2,0,,-37.8149210586, 144.969386004
2015,27,102070,102070,Austral House,115-119 Collins Street,Melbourne (CBD),1890,1997,5,Office,High level of accessibility,Main Entrance is at grade and has no steps or ramp,3,0,,-37.8147350817, 144.970007305
2015,27,102069,102069,Francis House,107-113 Collins Street,Melbourne (CBD),1926,1991,8,Office,Low level of accessibility,All entrances have steps,1,0,,-37.8146859129, 144.970259815
2015,27,102067,102067,101 Collins Street,89-105 Collins Street,Melbourne (CBD),1991,,51,Office,High level of accessibility,Main Entrance is at grade and has no steps or ramp,3,244,1,-37.8149203071, 144.970749815
2015,27,102065,102065,No 81,75-81 Collins Street,Melbourne (CBD),1945,2007,5,Entertainment/Recreation - Indoor,High level of accessibility,Main Entrance is at grade and has no steps or ramp,3,0,,-37.8143977097, 144.971171778
2015,27,102066,102066,Athenaem Club,83-87 Collins Street,Melbourne (CBD),1932,1994,6,Entertainment/Recreation - Indoor,Low level of accessibility,All entrances have steps,1,0,1,-37.8145429879, 144.97098453
2015,28,102062,102060,ANZ Tower,55 Collins Street,Melbourne (CBD),1981,1997,49,Office,High level of accessibility,Main Entrance is at grade and has no steps or ramp,3,0,,-37.8143061567, 144.972628061
2015,28,103969,103969,Cannons House,12-20 Flinders Lane ,Melbourne (CBD),1987,1996,10,Parking - Commercial Covered,High level of accessibility,Main Entrance is at grade and has no steps or ramp,3,0,,-37.8142429148, 144.973571894
2015,28,102063,102060,Collins Place,45 Collins Street,Melbourne (CBD),1981,1997,4,Parking - Commercial Covered,High level of accessibility,Main Entrance is at grade and has no steps or ramp,3,0,,-37.8143061567, 144.972628061
2015,28,102059,102059,,13-15 Collins Street,Melbourne (CBD),1970,1999,23,Hospital/Clinic,High level of accessibility,Main Entrance is at grade and has no steps or ramp,3,0,,-37.8138375583, 144.973355177
2015,28,102058,102058,,11 Collins Street,Melbourne (CBD),1950,2006,2,Retail - Shop,High level of accessibility,Main Entrance is at grade and has no steps or ramp,3,0,,-37.8137799719, 144.973462201
2015,28,102057,102057,One Collins Street,1-9 Collins Street,Melbourne (CBD),1984,1995,18,Office,High level of accessibility,Main Entrance is at grade and has no steps or ramp,3,23,,-37.8137270144, 144.97372009
2015,28,102061,102060,Collins Tower,25-45 Collins Street,Melbourne (CBD),1981,2006,53,Office,High level of accessibility,Main Entrance is at grade and has no steps or ramp,3,0,,-37.8143061567, 144.972628061
2015,28,108979,108979,51 SPRING STREET,49-51 Spring Street ,Melbourne (CBD),1973,1999,16,Residential Apartment,Low level of accessibility,All entrances have steps,1,0,,-37.8139766011, 144.973846171
2015,31,105297,105297,Citic House,97-111 King Street ,Melbourne (CBD),1990,1997,9,Office,High level of accessibility,Main Entrance is at grade and has no steps or ramp,3,0,,-37.8177352101, 144.955923532
2015,31,108968,108968,,613-639 Little Collins Street ,Melbourne (CBD),1973,2007,24,Office,High level of accessibility,Main Entrance is at grade and has no steps or ramp,3,20,1,-37.8181848431, 144.954365852
2015,31,105945,105945,,601-611 Little Collins Street ,Melbourne (CBD),1945,2014,14,Residential Apartment,Moderate level of accessibility,Main entrance has steps; Alternative entrance is step free or has ramp,2,0,,-37.818027824, 144.954905381
2015,31,105944,105944,,597-599 Little Collins Street ,Melbourne (CBD),,1998,3,Office,Moderate level of accessibility,Entrance(s) have limited access via a small lip or a steep ramp,2,6,1,-37.8179653928, 144.955121706
2015,31,105943,105943,NEM House,589-595 Little Collins Street ,Melbourne (CBD),1988,2001,4,Educational/Research,High level of accessibility,Main Entrance is at grade and has no steps or ramp,3,0,,-37.8179192284, 144.955283752
2015,31,105941,105941,The Fiddler,577-583 Little Collins Street ,Melbourne (CBD),1880,1994,3,Entertainment/Recreation - Indoor,Low level of accessibility,All entrances have steps,1,0,,-37.8178267212, 144.955605964
2015,31,102114,102114,Former New Zealand Loan and Merc,538-544 Collins Street,Melbourne (CBD),1910,2010,5,Student Accommodation,Moderate level of accessibility,Main entrance has steps; Alternative entrance is step free or has ramp,2,0,,-37.8181380439, 144.956217495
2015,31,102113,102113,McPhersons Building,546-566 Collins Street,Melbourne (CBD),1936,2006,7,Entertainment/Recreation - Indoor,High level of accessibility,Main Entrance is at grade and has no steps or ramp,3,0,,-37.8182446473, 144.955844602
2015,31,102112,102112,,568-580 Collins Street,Melbourne (CBD),2014,,60,Unoccupied - Under Construction,Not determined or not applicable,Building is not considered to be publicly accessible so access has not been rated,0,0,,-37.8183657361, 144.955424432
2015,31,102111,102111,,608-610 Collins Street,Melbourne (CBD),1945,1974,1,Entertainment/Recreation - Indoor,Not determined or not applicable,Configuration of entrance does not fit into any of the other categories,0,0,,-37.8186116575, 144.954568784
2015,31,102110,102110,,582-606 Collins Street,Melbourne (CBD),1982,1998,5,Educational/Research,High level of accessibility,Main Entrance is at grade and has no steps or ramp,3,0,,-37.8185042484, 144.95494399
2015,31,102109,102109,Liberty Tower,612-624 Collins Street,Melbourne (CBD),2002,,28,Residential Apartment,High level of accessibility,Main Entrance is at grade and has no steps or ramp,3,0,,-37.8186754446, 144.954350497
2015,31,105942,105942,,585-587 Little Collins Street ,Melbourne (CBD),1865,2010,3,Residential Apartment,Moderate level of accessibility,Entrance(s) have limited access via a small lip or a steep ramp,2,0,,-37.8178711807, 144.955443957
2015,32,102118,102118,Collins Street Tower,480-490 Collins Street,Melbourne (CBD),1966,2005,21,Commercial Accommodation,Moderate level of accessibility,Main entrance has steps; Alternative entrance is step free or has ramp,2,0,,-37.8176550994, 144.957951436
2015,32,110093,110093,Eagle House,91-97 William Street,Melbourne (CBD),1987,2004,11,Office,Low level of accessibility,All entrances have steps,1,0,,-37.8171187583, 144.958519343
2015,32,105940,105940,State Revenue Office,505-515 Little Collins Street ,Melbourne (CBD),1990,,13,Office,High level of accessibility,Main Entrance is at grade and has no steps or ramp,3,22,1,-37.8171964929, 144.957798945
2015,32,105939,105939,Henty House,499-503 Little Collins Street ,Melbourne (CBD),1924,1997,9,Residential Apartment,Low level of accessibility,All entrances have steps,1,0,,-37.8171056907, 144.958139839
2015,32,110094,110094,99 William Street,99-107 William Street,Melbourne (CBD),1985,1998,14,Office,Moderate level of accessibility,Main entrance has steps; Alternative entrance is step free or has ramp,2,0,,-37.8169050791, 144.958419856
2015,32,102121,102121,Western House,77-89 William Street,Melbourne (CBD),1939,1983,10,Office,Low level of accessibility,All entrances have steps,1,0,,-37.8174247344, 144.958734621
2015,32,102117,102117,500 Collins,500-514 Collins Street,Melbourne (CBD),1973,2008,27,Office,High level of accessibility,Main Entrance has ramp,3,45,1,-37.8175338282, 144.95747321
2015,32,102116,102116,520 Collins Street,516-520 Collins Street,Melbourne (CBD),1975,1999,18,Office,High level of accessibility,Main Entrance is at grade and has no steps or ramp,3,3,1,-37.8178032658, 144.95726292
2015,32,102115,102115,530 Collins,522-534 Collins Street,Melbourne (CBD),1991,2009,38,Office,Moderate level of accessibility,Main entrance has steps; Alternative entrance is step free or has ramp,2,100,1,-37.8176735887, 144.956834774
2015,32,102119,102119,470 Collins,468-478 Collins Street,Melbourne (CBD),1970,2014,16,Office,High level of accessibility,Main Entrance has ramp,3,0,1,-37.8175376412, 144.958333882
2015,32,102120,102120,Makers Mark,464-466 Collins Street,Melbourne (CBD),1915,1995,3,Unoccupied - Unused,Low level of accessibility,All entrances have steps,1,0,,-37.8174644952, 144.958592062
2015,33,108067,108067,,103-105 Queen Street,Melbourne (CBD),1957,1999,6,Office,Low level of accessibility,All entrances have steps,1,0,,-37.8161477622, 144.96084763
2015,33,102128,102128,St Georges Bank,408-410 Collins Street,Melbourne (CBD),1957,1987,13,Office,Moderate level of accessibility,Main entrance has steps; Alternative entrance is step free or has ramp,2,0,,-37.8169238108, 144.960652397
2015,33,105934,105934,C.C.Roeszler & Son,429 Little Collins Street ,Melbourne (CBD),1945,1997,4,Entertainment/Recreation - Indoor,Low level of accessibility,All entrances have steps,1,0,,-37.8162782974, 144.960451952
2015,33,105935,105935,,431 Little Collins Street ,Melbourne (CBD),1910,1992,2,Retail - Shop,Low level of accessibility,All entrances have steps,1,0,,-37.8162933335, 144.960396851
2015,33,105936,105936,,433 Little Collins Street ,Melbourne (CBD),1910,1990,2,Entertainment/Recreation - Indoor,High level of accessibility,Main Entrance is at grade and has no steps or ramp,3,0,,-37.8163109359, 144.960341294
2015,33,105937,105937,Stalbridge Chambers,435-443 Little Collins Street ,Melbourne (CBD),1891,2001,8,Office,Low level of accessibility,All entrances have steps,1,0,,-37.8163855847, 144.96008589
2015,33,105938,105938,,457-469 Little Collins Street ,Melbourne (CBD),1969,1991,18,Office,High level of accessibility,Main Entrance is at grade and has no steps or ramp,3,0,,-37.8166073403, 144.959550047
2015,33,108064,108064,,85-91 Queen Street,Melbourne (CBD),1973,2002,10,Office,High level of accessibility,Main Entrance is at grade and has no steps or ramp,3,0,,-37.8164971134, 144.961021291
2015,33,108066,108066,Bank of Singapore House,97-101 Queen Street,Melbourne (CBD),1967,1984,13,Office,Moderate level of accessibility,Main entrance has steps; Alternative entrance is step free or has ramp,2,0,1,-37.8162560058, 144.960928835
2015,33,110148,110148,Australian Club,98-110 William Street,Melbourne (CBD),1876,,5,Entertainment/Recreation - Indoor,Moderate level of accessibility,Main entrance has steps; Alternative entrance is step free or has ramp,2,0,,-37.8167454241, 144.95912177
2015,33,110149,110149,Scottish House,90-96 William Street,Melbourne (CBD),1907,1999,7,Office,Low level of accessibility,All entrances have steps,1,0,,-37.8169871763, 144.959223418
2015,33,110150,110150,Queensland Building,84-88 William Street,Melbourne (CBD),1912,1999,8,Office,Low level of accessibility,All entrances have steps,1,0,,-37.8171369073, 144.959289896
2015,33,110667,110666,,394 Collins Street,Melbourne (CBD),1876,2008,9,Commercial Accommodation,Moderate level of accessibility,Main entrance has steps; Alternative entrance is step free or has ramp,2,0,1,-37.8166677478, 144.961045423
2015,33,105933,105933,,425-427 Little Collins Street ,Melbourne (CBD),1945,2007,2,Entertainment/Recreation - Indoor,Low level of accessibility,All entrances have steps,1,0,,-37.8162541956, 144.960535403
2015,33,108065,108065,National Trustees Executors & Agency Co of Aust Ltd,93-95 Queen Street,Melbourne (CBD),1939,1991,7,Unoccupied - Unused,Low level of accessibility,All entrances have steps,1,0,,-37.8163787649, 144.960969473
2015,33,102122,102122,Christie Corporate Serviced Offices,454-456 Collins Street,Melbourne (CBD),1960,2008,11,Office,Moderate level of accessibility,Main entrance has steps; Alternative entrance is step free or has ramp,2,0,,-37.8173470666, 144.95923154
2015,33,102130,102130,London and Lancashire Building,400-402 Collins Street,Melbourne (CBD),1865,2012,8,Office,High level of accessibility,Main Entrance is at grade and has no steps or ramp,3,10,,-37.8168055228, 144.960939097
2015,33,100727,100727,Mitre Tavern,5-9 Bank Place,Melbourne (CBD),1837,1971,2,Entertainment/Recreation - Indoor,Low level of accessibility,All entrances have steps,1,0,,-37.8168045692, 144.960311216
2015,33,100728,100728,Bank House,11-19 Bank Place,Melbourne (CBD),1903,2008,6,Office,Low level of accessibility,All entrances have steps,1,0,,-37.816593358, 144.960187755
2015,33,100729,100729,Metro Apartments Bank Place,18-20 Bank Place,Melbourne (CBD),1905,2000,10,Commercial Accommodation,Low level of accessibility,All entrances have steps,1,0,,-37.8164289317, 144.960522519
2015,33,100731,100731,Charter House,4-10 Bank Place,Melbourne (CBD),1907,2001,8,Residential Apartment,Low level of accessibility,All entrances have steps,1,0,,-37.8166900923, 144.96064227
2015,33,102123,102123,446 Collins,446-452 Collins Street,Melbourne (CBD),1967,1988,13,Office,High level of accessibility,Main Entrance is at grade and has no steps or ramp,3,0,,-37.8173030208, 144.959442031
2015,33,102124,102124,Royal Insurance Centre,430-442 Collins Street,Melbourne (CBD),1965,1996,17,Office,Moderate level of accessibility,Main entrance has steps; Alternative entrance is step free or has ramp,2,0,,-37.8170323924, 144.959762303
2015,33,102125,102125,Temple Court on Collins,422-428 Collins Street,Melbourne (CBD),1925,2001,14,Residential Apartment,High level of accessibility,Main Entrance is at grade and has no steps or ramp,3,0,,-37.8167918324, 144.959996472
2015,33,102126,102126,Singapore Airlines House,416-420 Collins Street,Melbourne (CBD),1964,1980,11,Office,High level of accessibility,Main Entrance is at grade and has no steps or ramp,3,0,,-37.8169990987, 144.96031192
2015,33,102127,102127,Collins Hill House,412-414 Collins Street,Melbourne (CBD),1941,1991,11,Office,Low level of accessibility,All entrances have steps,1,0,,-37.8169896157, 144.960489024
2015,33,105932,105932,,421-423 Little Collins Street ,Melbourne (CBD),1929,1999,2,Retail - Shop,Low level of accessibility,All entrances have steps,1,0,,-37.8162285162, 144.960637444
2015,33,102129,102129,Praemium House,404-406 Collins Street,Melbourne (CBD),1958,2008,11,Office,High level of accessibility,Main Entrance is at grade and has no steps or ramp,3,0,,-37.8168696974, 144.960801958
2015,33,102131,110666,Bank of Australasia,394 Collins Street,Melbourne (CBD),1876,2008,9,Commercial Accommodation,Moderate level of accessibility,Main entrance has steps; Alternative entrance is step free or has ramp,2,0,1,-37.8166677478, 144.961045423
2015,33,100730,100730,The Melbourne Savage Club,12-16 Bank Place,Melbourne (CBD),1885,,3,Entertainment/Recreation - Indoor,Low level of accessibility,All entrances have steps,1,0,1,-37.8165446679, 144.960576536
2015,34,103177,103177,,105 Elizabeth Street,Melbourne (CBD),1945,1979,6,Unoccupied - Unused,Not determined or not applicable,Configuration of entrance does not fit into any of the other categories,0,0,,-37.8158221102, 144.963451289
2015,34,103178,103178,Paton Building,115-117 Elizabeth Street,Melbourne (CBD),1905,,6,Office,Moderate level of accessibility,Entrance(s) have limited access via a small lip or a steep ramp,2,0,,-37.8155949044, 144.963481473
2015,34,111206,111206,,107-113 Elizabeth Street,Melbourne (CBD),1925,1992,6,Unoccupied - Unused,High level of accessibility,Main Entrance is at grade and has no steps or ramp,3,0,,-37.8157339616, 144.963454405
2015,34,110670,110670,365 Little Collins Street,363-367 Little Collins Street ,Melbourne (CBD),1982,2004,11,Office,High level of accessibility,Main Entrance is at grade and has no steps or ramp,3,0,,-37.8158172088, 144.962811578
2015,34,110669,110669,Colonial Mutual Complex,353-359 Little Collins Street ,Melbourne (CBD),1982,2008,10,Commercial Accommodation,High level of accessibility,Main Entrance is at grade and has no steps or ramp,3,0,,-37.8157042603, 144.962984386
2015,34,105930,105930,Collins Gate,377-379 Little Collins Street ,Melbourne (CBD),1925,2000,6,Residential Apartment,Low level of accessibility,All entrances have steps,1,0,,-37.8158550117, 144.962439168
2015,34,102133,102133,Collins Wales House,360-374 Collins Street,Melbourne (CBD),1978,1999,37,Office,High level of accessibility,Main Entrance is at grade and has no steps or ramp,3,0,1,-37.8161552804, 144.962184429
2015,34,105929,105929,Equitable House,335-349 Little Collins Street ,Melbourne (CBD),1925,2002,14,Office,High level of accessibility,Main Entrance is at grade and has no steps or ramp,3,0,,-37.8155494088, 144.963293833
2015,34,103176,103176,,97-103 Elizabeth Street,Melbourne (CBD),1911,1988,8,Commercial Accommodation,Not determined or not applicable,Configuration of entrance does not fit into any of the other categories,0,0,,-37.815921574, 144.963497917
2015,34,102132,102132,ANZ Bank World Headquarters,376-390 Collins Street,Melbourne (CBD),1993,1993,34,Office,Not determined or not applicable,Configuration of entrance does not fit into any of the other categories,0,0,1,-37.8162938181, 144.9617186
2015,34,102134,102134,,352-358 Collins Street,Melbourne (CBD),1973,1990,17,Office,High level of accessibility,Main Entrance has ramp,3,0,,-37.816298796, 144.962586724
2015,34,102135,102135,Citibank Centre,344-350 Collins Street,Melbourne (CBD),1969,2007,16,Office,High level of accessibility,Main Entrance is at grade and has no steps or ramp,3,0,,-37.8160176393, 144.96268901
2015,34,102136,102136,AUSTOCK HOUSE ,338-342 Collins Street,Melbourne (CBD),1930,1994,8,Retail - Shop,Low level of accessibility,All entrances have steps,1,0,,-37.816220417, 144.962976137
2015,34,102137,102137,330 COLLINS STREET,308-336 Collins Street,Melbourne (CBD),1990,2003,20,Office,High level of accessibility,Main Entrance is at grade and has no steps or ramp,3,0,,-37.8161125562, 144.963343328
2015,35,109270,109270,,123 Swanston Street ,Melbourne (CBD),1930,,6,Entertainment/Recreation - Indoor,Not determined or not applicable,Configuration of entrance does not fit into any of the other categories,0,0,,-37.814829414, 144.965885187
2015,35,105921,105921,,271 Little Collins Street ,Melbourne (CBD),1945,,2,Retail - Shop,Low level of accessibility,All entrances have steps,1,0,,-37.8148660931, 144.965492998
2015,35,105927,105927,,313-315 Little Collins Street ,Melbourne (CBD),1921,1983,8,Workshop/Studio,Low level of accessibility,All entrances have steps,1,0,,-37.815161915, 144.964341587
2015,35,105923,105923,Halladale House,281-283 Little Collins Street ,Melbourne (CBD),1857,1989,4,Unoccupied - Unused,High level of accessibility,Main Entrance is at grade and has no steps or ramp,3,0,,-37.8150754941, 144.965225524
2015,35,105924,105924,CLEGS,285 Little Collins Street ,Melbourne (CBD),1884,1999,4,Retail - Shop,Low level of accessibility,All entrances have steps,1,0,,-37.8150076404, 144.965118572
2015,35,105925,105925,Carson House,287-289 Little Collins Street ,Melbourne (CBD),1884,,3,Hospital/Clinic,High level of accessibility,Main Entrance is at grade and has no steps or ramp,3,0,,-37.8150138192, 144.964977796
2015,35,105920,105920,,269 Little Collins Street ,Melbourne (CBD),1945,2013,2,Retail - Shop,Low level of accessibility,All entrances have steps,1,0,,-37.814853852, 144.965541977
2015,35,105926,105926,Yule House,309-311 Little Collins Street ,Melbourne (CBD),1932,1999,5,Hospital/Clinic,High level of accessibility,Main Entrance is at grade and has no steps or ramp,3,0,,-37.8151357939, 144.964432549
2015,35,105922,105922,Presgrave Building,273-279 Little Collins Street ,Melbourne (CBD),1938,2000,7,Commercial Accommodation,Not determined or not applicable,Configuration of entrance does not fit into any of the other categories,0,0,,-37.814903753, 144.965369339
2015,35,105928,105928,,317-321 Little Collins Street ,Melbourne (CBD),1893,,4,Unoccupied - Unused,Not determined or not applicable,Configuration of entrance does not fit into any of the other categories,0,0,,-37.8152894775, 144.964225445
2015,35,109267,109267,Manchester Unity Building,220-226 Collins Street,Melbourne (CBD),1932,1988,17,Workshop/Studio,High level of accessibility,Main Entrance is at grade and has no steps or ramp,3,0,,-37.8152847435, 144.966125777
2015,35,109269,109269,Talma Building,119-121 Swanston Street ,Melbourne (CBD),1859,2000,5,Residential Apartment,Not determined or not applicable,Configuration of entrance does not fit into any of the other categories,0,0,,-37.8148944044, 144.965899615
2015,35,109271,109271,Century Building,125-133 Swanston Street ,Melbourne (CBD),1938,,13,Office,High level of accessibility,Main Entrance is at grade and has no steps or ramp,3,0,,-37.81472467, 144.96581017
2015,35,558609,558609,,254 Collins Street,Melbourne (CBD),1927,1999,2,Retail - Shop,Moderate level of accessibility,Entrance(s) have limited access via a small lip or a steep ramp,2,0,,-37.815509084, 144.96534705
2015,35,558610,558610,,256 Collins Street,Melbourne (CBD),1927,2000,4,"Performances, Conferences, Ceremonies",Moderate level of accessibility,Entrance(s) have limited access via a small lip or a steep ramp,2,0,,-37.8155251371, 144.965291384
2015,35,105919,105919,,267 Little Collins Street ,Melbourne (CBD),1945,,3,Unoccupied - Under Renovation,Low level of accessibility,All entrances have steps,1,0,,-37.8148345823, 144.965603432
2015,35,103319,103319,City of Melbourne Chambers,112-118 Elizabeth Street,Melbourne (CBD),1888,,4,Retail - Shop,Low level of accessibility,All entrances have steps,1,0,,-37.8152828573, 144.963947487
2015,35,109268,109268,Capitol Arcade,109-117 Swanston Street ,Melbourne (CBD),1924,2000,11,Residential Apartment,High level of accessibility,Main Entrance is at grade and has no steps or ramp,3,0,,-37.8150769698, 144.965777374
2015,35,102143,102143,Australia on Collins,258-274 Collins Street,Melbourne (CBD),1992,2014,13,Commercial Accommodation,High level of accessibility,Main Entrance is at grade and has no steps or ramp,3,0,,-37.8153658694, 144.964899879
2015,35,103321,103321,The Block Arcade (Elizabeth),96-102 Elizabeth Street,Melbourne (CBD),1893,1990,5,Office,High level of accessibility,Main Entrance is at grade and has no steps or ramp,3,0,,-37.8155352581, 144.964227455
2015,35,103325,103325,,84-86 Elizabeth Street,Melbourne (CBD),1911,1985,3,Storage,High level of accessibility,Main Entrance is at grade and has no steps or ramp,3,0,,-37.8159132596, 144.964193373
2015,35,101778,101778,Vesta House,1-7 Carson Place,Melbourne (CBD),1945,,6,Equipment Installation,Low level of accessibility,All entrances have steps,1,0,,-37.8152232407, 144.965214584
2015,35,102138,102138,The Cashmore On Collins,298-304 Collins Street,Melbourne (CBD),1903,2002,7,Residential Apartment,Low level of accessibility,All entrances have steps,1,0,,-37.8159763942, 144.964231189
2015,35,102139,102139,Permanent Trustee House,294-296 Collins Street,Melbourne (CBD),1915,1988,7,Office,Low level of accessibility,All entrances have steps,1,0,,-37.8159113466, 144.964367744
2015,35,102142,102142,Mering House,276-278 Collins Street,Melbourne (CBD),1958,2008,11,Office,High level of accessibility,Main Entrance is at grade and has no steps or ramp,3,0,,-37.8156383229, 144.964763145
2015,35,101098,101098,,28-32 Block Place ,Melbourne (CBD),1945,2000,3,Entertainment/Recreation - Indoor,Low level of accessibility,All entrances have steps,1,0,,-37.8152915539, 144.964466158
2015,35,102145,102145,The Hour Glass Building,252 Collins Street,Melbourne (CBD),1935,1997,7,Unoccupied - Unused,Low level of accessibility,All entrances have steps,1,0,,-37.8154834217, 144.96540669
2015,35,102146,102146,Collins Two3Four,234-250 Collins Street,Melbourne (CBD),1991,,10,Office,High level of accessibility,Main Entrance is at grade and has no steps or ramp,3,0,,-37.8154195702, 144.965657674
2015,35,102147,102147,,228-232 Collins Street,Melbourne (CBD),1936,2001,12,Office,Low level of accessibility,All entrances have steps,1,0,,-37.8153941976, 144.965969655
2015,35,103320,103320,Brashs,104-110 Elizabeth Street,Melbourne (CBD),1862,1997,6,Unoccupied - Unused,High level of accessibility,Main Entrance is at grade and has no steps or ramp,3,0,,-37.815443455, 144.964020205
2015,35,101097,101097,Douglas House,34-36 Block Place ,Melbourne (CBD),1912,,4,Retail - Shop,Low level of accessibility,All entrances have steps,1,0,,-37.8152682547, 144.964390052
2015,35,103322,103322,Beehive Building,92-94 Elizabeth Street,Melbourne (CBD),1935,2003,11,Office,High level of accessibility,Main Entrance is at grade and has no steps or ramp,3,0,,-37.8157322176, 144.964173256
2015,35,103323,103323,,90 Elizabeth Street,Melbourne (CBD),1861,1985,3,Storage,High level of accessibility,Main Entrance is at grade and has no steps or ramp,3,0,,-37.8158026055, 144.964206139
2015,35,103324,103324,Alexanders,88 Elizabeth Street,Melbourne (CBD),1945,,3,Retail - Shop,High level of accessibility,Main Entrance is at grade and has no steps or ramp,3,0,,-37.815846273, 144.964240758
2015,35,102141,102141,The Block Arcade,280-292 Collins Street,Melbourne (CBD),1890,1995,5,Office,High level of accessibility,Main Entrance is at grade and has no steps or ramp,3,0,,-37.815672289, 144.96455743
2015,36,110754,109416,ADMINISTRATION BUILDING (MCC),110-130 Swanston Street ,Melbourne (CBD),1867,1998,5,Office,High level of accessibility,Main Entrance is at grade and has no steps or ramp,3,0,,-37.8148681331, 144.966755057
2015,36,105916,105916,Victoria Hotel,201-207 Little Collins Street ,Melbourne (CBD),1928,1969,10,Commercial Accommodation,Low level of accessibility,All entrances have steps,1,0,,-37.8143412329, 144.967529662
2015,36,110731,110731,SCOTS CHURCH,77-97 Russell Street,Melbourne (CBD),1841,1994,2,"Performances, Conferences, Ceremonies",Low level of accessibility,All entrances have steps,1,0,,-37.8145194233, 144.968488488
2015,36,108534,108534,,150-154 Collins Street,Melbourne (CBD),2013,,14,Unoccupied - Under Construction,High level of accessibility,Main Entrance is at grade and has no steps or ramp,3,160,1,-37.8141971384, 144.968181023
2015,36,105917,105917,The Victoria Hotel,209-221 Little Collins Street ,Melbourne (CBD),1934,2003,9,Commercial Accommodation,High level of accessibility,Main Entrance is at grade and has no steps or ramp,3,0,,-37.8144723719, 144.967094317
2015,36,102153,102153,Assembly Hall,156-160 Collins Street,Melbourne (CBD),1841,2009,3,Office,Moderate level of accessibility,Main entrance has steps; Alternative entrance is step free or has ramp,2,0,,-37.8146427274, 144.968154479
2015,36,102152,102152,Georges Building,162-168 Collins Street,Melbourne (CBD),1883,2002,4,Office,High level of accessibility,Main Entrance is at grade and has no steps or ramp,3,0,,-37.8145030127, 144.967847569
2015,36,102151,102151,Collins Street Baptist Church,170-174 Collins Street,Melbourne (CBD),1845,1997,10,"Performances, Conferences, Ceremonies",Moderate level of accessibility,Main entrance has steps; Alternative entrance is step free or has ramp,2,0,,-37.8147466148, 144.967714436
2015,36,102150,102150,PLEASANCE HOUSE,176-180 Collins Street,Melbourne (CBD),1889,1991,5,Retail - Shop,Low level of accessibility,All entrances have steps,1,0,,-37.8149209041, 144.967591133
2015,36,102148,102148,Athenaeum Library and Theatre,184-192 Collins Street,Melbourne (CBD),1886,1991,4,"Performances, Conferences, Ceremonies",High level of accessibility,Main Entrance is at grade and has no steps or ramp,3,0,,-37.8148558501, 144.967277785
2015,36,110755,109416,MELBOURNE TOWN HALL,100 Swanston Street ,Melbourne (CBD),1867,1998,5,"Performances, Conferences, Ceremonies",High level of accessibility,Main Entrance has ramp,3,0,,-37.8148681331, 144.966755057
2015,36,102149,102149,Clyde House,182 Collins Street,Melbourne (CBD),1915,2000,9,Commercial Accommodation,High level of accessibility,Main Entrance is at grade and has no steps or ramp,3,0,,-37.814799182, 144.967453743
2015,37,102159,102159,Palmer House,82 Collins Street,Melbourne (CBD),1959,1999,8,Unoccupied - Under Demolition/Condemned,High level of accessibility,Main Entrance is at grade and has no steps or ramp,3,0,,-37.8139786973, 144.970816405
2015,37,105915,105915,Stamford Plaza Hotel,121-127 Little Collins Street ,Melbourne (CBD),1990,2012,17,Commercial Accommodation,High level of accessibility,Main Entrance is at grade and has no steps or ramp,3,0,1,-37.8136885973, 144.969767588
2015,37,105914,105914,Stamford Plaza Melbourne,109-119 Little Collins Street ,Melbourne (CBD),1990,2012,18,Commercial Accommodation,High level of accessibility,Main Entrance is at grade and has no steps or ramp,3,0,1,-37.8135477695, 144.970029111
2015,37,102163,102163,,68-72 Collins Street,Melbourne (CBD),1867,1995,3,Office,Low level of accessibility,All entrances have steps,1,0,1,-37.8139196797, 144.971157987
2015,37,102162,102162,,74 Collins Street,Melbourne (CBD),1855,1954,3,Unoccupied - Unused,Low level of accessibility,All entrances have steps,1,0,,-37.8139363308, 144.971053849
2015,37,102161,102161,80 Collins Street,76-80 Collins Street,Melbourne (CBD),1977,1998,48,Office,High level of accessibility,Main Entrance has ramp,3,130,1,-37.8135864607, 144.970708673
2015,37,102157,102157,90 COLLINS STREET,90-98 Collins Street,Melbourne (CBD),1988,2003,22,Office,High level of accessibility,Main Entrance is at grade and has no steps or ramp,3,25,1,-37.8139674977, 144.970281283
2015,37,102156,102156,,100-104 Collins Street,Melbourne (CBD),1956,1990,13,Office,Low level of accessibility,All entrances have steps,1,0,,-37.8142368832, 144.97000793
2015,37,102155,102155,120 Collins Street,106-120 Collins Street,Melbourne (CBD),1991,2005,50,Office,Not determined or not applicable,Configuration of entrance does not fit into any of the other categories,0,80,1,-37.8139845664, 144.96937971
2015,37,102154,102154,St Michaels Uniting Church,122-136 Collins Street,Melbourne (CBD),1866,,1,"Performances, Conferences, Ceremonies",Low level of accessibility,All entrances have steps,1,0,,-37.8143584848, 144.96923869
2015,37,100398,100398,,7-19 Alfred Place,Melbourne (CBD),1887,2006,4,Entertainment/Recreation - Indoor,Low level of accessibility,All entrances have steps,1,0,,-37.8140126723, 144.969910417
2015,37,102158,102158,,86-88 Collins Street,Melbourne (CBD),1872,1987,3,Entertainment/Recreation - Indoor,Low level of accessibility,All entrances have steps,1,0,,-37.8139377691, 144.970584699
2015,38,108981,108981,Parliament Station,87-91 Spring Street ,Melbourne (CBD),1983,,1,Transport,Moderate level of accessibility,Main entrance has steps; Alternative entrance is step free or has ramp,2,0,,-37.8127757744, 144.973414938
2015,38,105910,105910,,25-35 Little Collins Street ,Melbourne (CBD),2014,,33,Residential Apartment,High level of accessibility,Main Entrance is at grade and has no steps or ramp,3,14,1,-37.8129051064, 144.972706465
2015,38,105911,105911,,37 Little Collins Street ,Melbourne (CBD),1945,,2,Entertainment/Recreation - Indoor,Low level of accessibility,All entrances have steps,1,0,,-37.8127844353, 144.97249271
2015,38,105912,105912,,39-41 Little Collins Street ,Melbourne (CBD),1919,1999,3,Office,Low level of accessibility,All entrances have steps,1,0,,-37.8127987632, 144.972393245
2015,38,105913,105913,,57-67 Little Collins Street ,Melbourne (CBD),1945,2005,3,Office,High level of accessibility,Main Entrance is at grade and has no steps or ramp,3,0,,-37.8130981898, 144.971695319
2015,38,108272,108272,Monaco House,22 Ridgway Place ,Melbourne (CBD),1962,2007,4,Office,Low level of accessibility,All entrances have steps,1,0,,-37.8129225875, 144.972488639
2015,38,108273,108273,,20 Ridgway Place ,Melbourne (CBD),1898,,4,House/Townhouse,Not determined or not applicable,Building is not considered to be publicly accessible so access has not been rated,0,0,,-37.8129688384, 144.972510921
2015,38,108980,108980,Esanda Building,85 Spring Street ,Melbourne (CBD),1988,2003,16,Unoccupied - Unused,High level of accessibility,Main Entrance has ramp,3,0,,-37.8128016434, 144.97302452
2015,38,102174,102174,Alcaston House,2 Collins Street,Melbourne (CBD),1930,1982,8,Hospital/Clinic,Low level of accessibility,All entrances have steps,1,0,1,-37.8130488713, 144.973546759
2015,38,108982,108982,Treasury Gate,93-101 Spring Street ,Melbourne (CBD),1972,1990,28,Residential Apartment,Moderate level of accessibility,Main entrance has steps; Alternative entrance is step free or has ramp,2,0,1,-37.8126003869, 144.973183634
2015,38,108274,108274,The Lyceum Club,2-18 Ridgway Place ,Melbourne (CBD),1959,,3,Entertainment/Recreation - Indoor,High level of accessibility,Main Entrance has ramp,3,0,,-37.8131496263, 144.972595214
2015,38,102167,102167,,30-34 Collins Street,Melbourne (CBD),1976,2000,15,Office,High level of accessibility,Main Entrance is at grade and has no steps or ramp,3,0,,-37.8134624389, 144.972472416
2015,38,102164,102164,Reserve Bank of Australia,56-64 Collins Street,Melbourne (CBD),1965,2003,17,Office,High level of accessibility,Main Entrance is at grade and has no steps or ramp,3,0,,-37.8136188518, 144.971624202
2015,38,103628,103628,,96-102 Exhibition Street ,Melbourne (CBD),1965,2003,11,Commercial Accommodation,High level of accessibility,Main Entrance has ramp,3,0,,-37.8133011795, 144.971448606
2015,38,102166,102166,The Melbourne Club,36-50 Collins Street,Melbourne (CBD),1858,1995,3,Entertainment/Recreation - Indoor,Low level of accessibility,All entrances have steps,1,0,,-37.8132491353, 144.972117238
2015,38,103627,103627,Centenary Hall,104-110 Exhibition Street ,Melbourne (CBD),1935,2002,7,Office,Moderate level of accessibility,Main entrance has steps; Alternative entrance is step free or has ramp,2,0,,-37.8131017757, 144.971356093
2015,38,102168,102168,Farrer House,24-28 Collins Street,Melbourne (CBD),1969,1997,13,Office,High level of accessibility,Main Entrance is at grade and has no steps or ramp,3,0,,-37.8134259326, 144.972708347
2015,38,102169,102169,Coates Building,18-22 Collins Street,Melbourne (CBD),1960,1996,13,Hospital/Clinic,High level of accessibility,Main Entrance is at grade and has no steps or ramp,3,0,,-37.8133053455, 144.97289193
2015,38,102170,102170,Chanonry,14-16 Collins Street,Melbourne (CBD),1912,1999,6,Office,Low level of accessibility,All entrances have steps,1,0,,-37.8133002948, 144.973069527
2015,38,102171,102171,Victor Horsley Chambers,10-12 Collins Street,Melbourne (CBD),1924,,6,Hospital/Clinic,Moderate level of accessibility,Main entrance has steps; Alternative entrance is step free or has ramp,2,0,1,-37.8131458381, 144.973096036
2015,38,102172,102172,Portland House,8 Collins Street,Melbourne (CBD),1872,,3,Office,Low level of accessibility,All entrances have steps,1,0,1,-37.8131423084, 144.973257529
2015,38,102173,102173,Anzac House,4-6 Collins Street,Melbourne (CBD),1938,2002,6,Office,Moderate level of accessibility,Main entrance has steps; Alternative entrance is step free or has ramp,2,0,1,-37.8131081451, 144.973405064
2015,38,102165,102165,ANU House,52-54 Collins Street,Melbourne (CBD),1990,,12,Office,Low level of accessibility,All entrances have steps,1,0,,-37.8135588551, 144.971839242
2015,41,105298,105298,,115-129 King Street ,Melbourne (CBD),1883,2008,3,Office,Low level of accessibility,All entrances have steps,1,0,,-37.8172816277, 144.955642124
2015,41,108965,108965,,134-160 Spencer Street,Melbourne (CBD),1973,2013,1,Entertainment/Recreation - Indoor,High level of accessibility,Main Entrance is at grade and has no steps or ramp,3,0,,-37.8173896891, 144.953751978
2015,41,105948,105948,,582-584 Little Collins Street ,Melbourne (CBD),1923,2001,2,Entertainment/Recreation - Indoor,Low level of accessibility,All entrances have steps,1,0,,-37.8174092756, 144.955352548
2015,41,105947,101161,Stella Maris Seafarers Centre,588-600 Little Collins Street ,Melbourne (CBD),1973,1981,2,"Performances, Conferences, Ceremonies",Low level of accessibility,All entrances have steps,1,0,,-37.8171964378, 144.954923184
2015,41,108966,108966,Vibe Savoy,626-636 Little Collins Street ,Melbourne (CBD),1928,1991,12,Commercial Accommodation,High level of accessibility,Main Entrance is at grade and has no steps or ramp,3,0,1,-37.8177722137, 144.953929301
2015,41,105299,105299,Ibis Styles Hotel,131-137 King Street ,Melbourne (CBD),1926,2010,7,Commercial Accommodation,Low level of accessibility,All entrances have steps,1,0,,-37.8170832281, 144.955503929
2015,41,101164,101164,Defence Plaza,655-667 Bourke Street ,Melbourne (CBD),1990,1995,10,Office,High level of accessibility,Main Entrance is at grade and has no steps or ramp,3,0,,-37.8173211771, 144.954492589
2015,41,101162,101161,St Augustines Roman Catholic Church,651 Bourke Street ,Melbourne (CBD),1869,1936,1,"Performances, Conferences, Ceremonies",Low level of accessibility,All entrances have steps,1,0,,-37.8171964378, 144.954923184
2015,41,101160,101160,Royal Melbourne Hotel,621-633 Bourke Street ,Melbourne (CBD),1889,1989,2,Entertainment/Recreation - Indoor,High level of accessibility,Main Entrance is at grade and has no steps or ramp,3,0,1,-37.8168669505, 144.955227955
2015,41,101159,101159,Moore Stephens House,607-619 Bourke Street ,Melbourne (CBD),1990,2000,20,Office,High level of accessibility,Main Entrance is at grade and has no steps or ramp,3,0,,-37.8167736514, 144.955552875
2015,2503,617760,617760,,12 Bendall Street,Kensington,1989,,2,House/Townhouse,,,,,,-37.7889068207, 144.924164723
2015,41,101165,101165,The Old Tramways Building,669-675 Bourke Street ,Melbourne (CBD),1891,1997,4,Office,Low level of accessibility,All entrances have steps,1,0,,-37.8172178052, 144.95410043
2015,41,105946,105946,Grand City Apartments,616-622 Little Collins Street ,Melbourne (CBD),1937,1995,8,Residential Apartment,Low level of accessibility,All entrances have steps,1,0,,-37.817600365, 144.954277827
2015,42,105390,105390,Allianz Centre,589-603 Bourke Street ,Melbourne (CBD),1975,2002,12,Office,High level of accessibility,Main Entrance is at grade and has no steps or ramp,3,0,,-37.8165271991, 144.956181965
2015,42,110095,101155,St James Building,555 Bourke Street ,Melbourne (CBD),1969,2012,9,Office,Moderate level of accessibility,Main entrance has steps; Alternative entrance is step free or has ramp,2,0,,-37.8163653378, 144.957813229
2015,42,105950,105950,Exchange Tower,520-536 Little Collins Street ,Melbourne (CBD),1976,2001,18,Office,High level of accessibility,Main Entrance is at grade and has no steps or ramp,3,0,,-37.8168686475, 144.957088037
2015,42,105949,105949,Ebsworth House,538-542 Little Collins Street ,Melbourne (CBD),1879,1997,5,Institutional Accommodation ,Not determined or not applicable,Configuration of entrance does not fit into any of the other categories,0,0,,-37.8169594217, 144.956773994
2015,42,105391,105391,,140-146 King Street ,Melbourne (CBD),1963,2001,3,Unoccupied - Unused,Low level of accessibility,All entrances have steps,1,0,,-37.8167365256, 144.956277017
2015,42,101158,101158,,573-585 Bourke Street ,Melbourne (CBD),1987,2003,17,Office,Moderate level of accessibility,Main entrance has steps; Alternative entrance is step free or has ramp,2,0,,-37.816514266, 144.956668799
2015,42,101157,101157,OCBC House,561-571 Bourke Street ,Melbourne (CBD),1902,2006,16,Office,Moderate level of accessibility,Main entrance has steps; Alternative entrance is step free or has ramp,2,0,,-37.816474281, 144.95701796
2015,42,101156,101155,AMP Tower,535 Bourke Street ,Melbourne (CBD),1969,2012,25,Office,Moderate level of accessibility,Main entrance has steps; Alternative entrance is step free or has ramp,2,30,1,-37.8163653378, 144.957813229
2015,42,105392,105392,,120-138 King Street ,Melbourne (CBD),1914,1989,5,Educational/Research,High level of accessibility,Main Entrance has ramp,3,0,,-37.8170315591, 144.956407819
2015,43,101154,101154,RACV Centre,483-501 Bourke Street ,Melbourne (CBD),2005,2008,18,Parking - Private Covered,High level of accessibility,Main Entrance is at grade and has no steps or ramp,3,40,1,-37.8158795701, 144.959592497
2015,43,110146,110146,,130-148 William Street,Melbourne (CBD),1972,2004,42,Office,High level of accessibility,Main Entrance is at grade and has no steps or ramp,3,60,1,-37.8159564218, 144.958939248
2015,43,108070,108070,,449-455 Bourke Street ,Melbourne (CBD),1961,1991,13,Office,High level of accessibility,Main Entrance is at grade and has no steps or ramp,3,0,,-37.8152716223, 144.960507681
2015,43,110147,110147,,114-128 William Street,Melbourne (CBD),1976,2008,24,Office,High level of accessibility,Main Entrance is at grade and has no steps or ramp,3,50,1,-37.8163064764, 144.958922359
2015,43,108069,108069,,131-141 Queen Street,Melbourne (CBD),,1988,9,Educational/Research,High level of accessibility,Main Entrance has ramp,3,0,,-37.8154990392, 144.960540901
2015,43,105953,105953,Normanby Chambers,430-436 Little Collins Street ,Melbourne (CBD),1883,,4,Office,Moderate level of accessibility,Main entrance has steps; Alternative entrance is step free or has ramp,2,0,,-37.8159687814, 144.960110089
2015,43,101153,101153,Eagle House,473-481 Bourke Street ,Melbourne (CBD),1972,2006,14,Office,High level of accessibility,Main Entrance is at grade and has no steps or ramp,3,10,,-37.8155640527, 144.959922011
2015,43,101152,101152,,457-471 Bourke Street ,Melbourne (CBD),1969,2001,21,Office,Moderate level of accessibility,Main entrance has steps; Alternative entrance is step free or has ramp,2,28,1,-37.8154726807, 144.960188611
2015,43,108068,108068,,111-129 Queen Street,Melbourne (CBD),1961,2006,16,Entertainment/Recreation - Indoor,Low level of accessibility,All entrances have steps,1,0,,-37.8158115187, 144.960636662
2015,43,105954,105954,,422-428 Little Collins Street ,Melbourne (CBD),1986,2006,10,Educational/Research,High level of accessibility,Main Entrance is at grade and has no steps or ramp,3,0,,-37.8159076013, 144.960326007
2015,44,541400,541400,,387-391 Bourke Street ,Melbourne (CBD),,,2,Retail - Shop,High level of accessibility,Main Entrance is at grade and has no steps or ramp,3,0,,-37.8147599109, 144.962388647
2015,44,106373,106373,,21-27 McKillop Street ,Melbourne (CBD),1986,2008,1,Entertainment/Recreation - Indoor,High level of accessibility,Main Entrance is at grade and has no steps or ramp,3,0,,-37.8152324974, 144.96146871
2015,44,106374,106374,,18-22 McKillop Street ,Melbourne (CBD),1889,2004,7,Residential Apartment,Low level of accessibility,All entrances have steps,1,0,,-37.8151459815, 144.961818577
2015,45,109276,109276,,147 Swanston Street ,Melbourne (CBD),1945,1989,3,Storage,High level of accessibility,Main Entrance is at grade and has no steps or ramp,3,0,,-37.8142989187, 144.965685132
2015,44,597186,101146,Galleria,385 Bourke Street ,Melbourne (CBD),1981,2005,3,Parking - Commercial Covered,Moderate level of accessibility,Main entrance has steps; Alternative entrance is step free or has ramp,2,45,1,-37.8149150168, 144.962944236
2015,44,108109,108109,Prudential Building,148-156 Queen Street,Melbourne (CBD),1960,1999,12,Unoccupied - Under Demolition/Condemned,Low level of accessibility,All entrances have steps,1,0,,-37.8150887882, 144.961159062
2015,44,106375,106375,,10-16 McKillop Street ,Melbourne (CBD),1868,,5,Entertainment/Recreation - Indoor,Low level of accessibility,All entrances have steps,1,0,,-37.815330918, 144.961902888
2015,44,108112,108112,,400-404 Little Collins Street ,Melbourne (CBD),1913,1999,6,Residential Apartment,Low level of accessibility,All entrances have steps,1,0,,-37.8157953208, 144.961363488
